ICAO,Airport_Name,City,Elevation,Longitude,Latitude,tower_frequency,atis_frequency,awos_frequency,asos_frequency,unicom_frequency,Show_on_map
UHMI,Mys Shmidta Airport,Egvekinot,18.0,-179.3755341,68.86857605,,,,,,1
PALU,Cape Lisburne LRRS,Cape Lisburne,13.0,-166.111084,68.8751297,0,0,0,0,0,1
PAPO,Point Hope,Point Hope,18.0,-166.7992706,68.34874725,0,0,118325,0,0,1
Z53,Cape Sabine,Cape Beaufort,56.0,-163.8580627,69.02394867,0,0,0,0,0,1
PPIZ,Point Lay LRRS,Point Lay,23.0,-163.0053406,69.73288727,0,0,122400,0,0,1
2AK8,Icy Cape AFS,Icy Cape,48.0,-161.9033356,70.2924881,,,,,,1
PAVL,Kivalina,Kivalina,17.0,-164.5635071,67.73613739,0,0,0,135800,122800,1
PAWN,Noatak,Noatak,88.0,-162.980423,67.56116486,0,0,135750,0,0,1
PAWT,Wainwright As,Wainwright,35.0,-159.8603516,70.61338043,0,0,0,0,0,1
PAWI,Wainwright,Wainwright,41.0,-159.994751,70.63800049,0,0,0,132250,0,1
PABR,Wiley Post-Will Rogers Memoria,Barrow,44.0,-156.7685852,71.2848587,0,0,0,132150,132150,1
PABO,Point Barrow LRRS Airstrip,Barrow,11.0,-156.6362152,71.3391571,,,,,,1
PATQ,Atqasuk Edward Burnell Sr Memorial Airport,Atqasuk,100.0,-157.4356689,70.46710968,0,0,119925,0,0,1
0AK2,Cape Simpson,Cape Simpson,11.0,-154.7380066,71.05806732,0,0,0,0,122800,1
AK71,Lonely As,Lonely,17.0,-153.242218,70.91074371,,,,,,1
3AK9,Kogru River,Kogru River,25.0,-152.2588043,70.5742569,,,,,,1
PALP,Alpine Airstrip,Deadhorse,21.0,-150.9447479,70.34427643,0,0,0,135350,122800,1
AK20,Cd-3 Airstrip,Nuiqsut,7.0,-150.886673,70.42062378,,,,,,1
4AK1,Inigok,Deadhorse,175.0,-153.0775757,70.00382996,0,0,0,0,122800,1
PAUM,Umiat,Umiat,267.0,-152.1349792,69.37111664,0,0,0,0,122800,1
PAQT,Nuiqsut,Nuiqsut,41.0,-151.0064697,70.20983124,0,0,0,135350,0,1
PAKP,Anaktuvuk Pass,Anaktuvuk Pass,2079.0,-151.7433319,68.13361359,0,0,0,0,0,1
PADK,Adak,Adak I,17.0,-176.6424866,51.88358307,0,0,134500,0,0,1
UHMD,Provideniya Bay,Provideniya Bay,46.0,-173.2433319,64.37805176,119300,0,0,0,0,1
PAAK,Atka,Atka,44.0,-174.206192,52.22058487,0,0,135550,0,0,1
PASN,St Paul Island,St Paul I,53.0,-170.2225494,57.16630554,0,0,0,135750,0,1
PAPB,St George,St George,125.0,-169.6637268,56.57736206,0,0,0,0,0,1
PAKO,Nikolski As,Nikolski,60.0,-168.8490295,52.94155502,0,0,0,0,0,1
PASH,Shishmaref,Shishmaref,13.0,-166.0893555,66.24958038,0,0,121100,0,0,1
PAIW,Wales,Wales,21.0,-168.0949707,65.62255859,0,0,118525,0,0,1
3Z1,Feather River,Feather River,325.0,-166.1315155,64.83172607,0,0,0,0,0,1
PATE,Teller,Teller,289.0,-166.339386,65.24038696,0,0,118375,0,0,1
PAPC,Port Clarence CGS,Port Clarence,5.0,-166.8576202,65.25345612,,,,,,1
PFKT,Brevig Mission,Brevig Mission,36.0,-166.4657288,65.33133698,0,0,121550,0,0,1
Z81,Salmon Lake,Salmon Lake,493.0,-165.0147095,64.90901184,0,0,0,0,0,1
94Z,Nome City,Nome,61.0,-165.3902283,64.5114212,0,0,0,0,0,1
PAOM,Nome,Nome,25.0,-165.4443817,64.51255798,0,0,0,0,119925,1
Z47,Basin Creek,Basin Creek,140.0,-165.2992096,64.67909241,0,0,0,0,0,1
PACZ,Cape Romanzof LRRS,Cape Romanzof,420.0,-166.0395813,61.7810173,0,0,0,0,0,1
PAHP,Hooper Bay,Hooper Bay,18.0,-166.1466217,61.52386856,0,0,135100,0,0,1
PACM,Scammon Bay,Scammon Bay,15.0,-165.5737457,61.84453964,0,0,118425,0,123000,1
PAVA,Chevak,,53.0,-165.6008911,61.54083252,0,0,120625,0,122800,1
PAOO,Toksook Bay,Toksook Bay,61.0,-165.0871887,60.54133224,0,0,119275,0,0,1
PAMY,Mekoryuk,Mekoryuk,53.0,-166.2701874,60.37239075,0,0,123900,0,0,1
PAUT,Akutan,,121.0,-165.6041107,54.14461136,0,0,129050,0,0,1
PAAM,Driftwood Bay Air Force Station,Dutch Harbor,24.0,-166.8574066,53.97198105,,,,,,1
PADU,Unalaska,Unalaska,18.0,-166.5450287,53.89894485,0,0,125800,0,0,1
PAUA,Cape Field At Fort Glenn,Unalaska,104.0,-167.8923492,53.37697983,,,,,,1
PAOT,Ralph Wien Memorial,Kotzebue,13.0,-162.5981445,66.88480377,0,0,0,135450,122800,1
5QC,Quartz Creek Kougarok,Quartz Creek,416.0,-164.6557312,65.40592957,0,0,0,0,0,1
K29,Council,Council,94.0,-163.7035065,64.89674377,0,0,0,0,0,1
PAWM,White Mountain,White Mountain,244.0,-163.4127502,64.68919373,0,0,121450,0,0,1
2AK9,Independence Creek,Independence Creek,250.0,-162.4640656,65.67347717,,,,,,1
PADE,Deering,Deering,23.0,-162.7670593,66.06911469,0,0,0,0,0,1
PAGZ,Granite Mountain As,Granite Mountain,1273.0,-161.2814789,65.40213013,,,,,,1
AK26,Solomon State Field,Solomon,25.0,-164.4423218,64.56063843,,,,,,1
PFEL,Elim,Elim,143.0,-162.2705231,64.61497498,0,0,121425,0,0,1
GLV,Golovin,Golovin,9.0,-163.0387268,64.54381561,,,,,,1
PAGL,Golovin,Golovin,53.0,-163.0071716,64.55046082,0,0,0,135750,0,1
WBB,Stebbins,Stebbins,17.0,-162.2779999,63.51597214,0,0,0,0,122800,1
PAMK,St. Michael,St. Michael,93.0,-162.1103821,63.49005508,0,0,119275,0,0,1
AUK,Alakanuk,Alakanuk,19.0,-164.650528,62.67883682,0,0,0,0,0,1
PAEM,Emmonak,Emmonak,16.0,-164.4907532,62.78614044,0,0,0,0,0,1
PAUK,Alakanuk,,22.0,-164.7221985,62.68305588,,,,,,1
PFKO,Kotlik,Kotlik,13.0,-163.5326385,63.03058243,0,0,0,0,0,1
SXP,Sheldon Point,Sheldon Point,18.0,-164.847641,62.52041626,0,0,0,0,0,1
PAMO,Mountain Village,Mountain Village,318.0,-163.6828613,62.09477615,0,0,118350,0,0,1
PASM,St Mary's,St Mary's,303.0,-163.3018341,62.06083298,0,0,128700,0,0,1
0AK,Pilot Station,Pilot Station,463.0,-162.9423523,61.96147919,0,0,0,0,0,1
IGT,Nightmute,Nightmute,19.0,-164.7040253,60.46921539,0,0,0,0,0,1
PAEW,Newtok,Newtok,13.0,-164.6412506,60.93914032,0,0,0,0,0,1
MLL,Marshall,Marshall,110.0,-162.0679016,61.86746216,0,0,0,0,0,1
PARS,Russian Mission,Russian Mission,58.0,-161.319397,61.7748909,0,0,118375,0,0,1
PPIT,Nunapitchuk,Nunapitchuk,20.0,-162.4405823,60.90599823,0,0,121550,0,0,1
4A2,Atmautluak,Atmautluak,18.0,-162.2742767,60.8678894,0,0,0,0,0,1
PFKW,Kwethluk,Kwethluk,25.0,-161.4436951,60.79033279,0,0,120000,0,0,1
PABE,Bethel,Bethel,120.0,-161.8371735,60.77855682,118700,119800,0,135450,0,1
PAPK,Napaskiak,Napaskiak,11.0,-161.7783051,60.70291519,0,0,0,0,0,1
PANA,Napakiak,Napakiak,16.0,-161.9785004,60.69033432,0,0,121425,0,0,1
Z13,Akiachak,Akiachak,28.0,-161.4933777,60.91382217,0,0,0,0,0,1
PACK,Chefornak,Chefornak,50.0,-164.2790527,60.13679886,0,0,0,0,0,1
PAGG,Kwigillingok,Kwigillingok,18.0,-163.168045,59.87558746,0,0,0,0,0,1
PAKI,Kipnuk,Kipnuk,19.0,-164.0281067,59.93161011,0,0,118325,0,0,1
A61,Tuntutuliak,Tuntutuliak,14.0,-162.6546173,60.35110855,0,0,0,0,0,1
PADY,Kongiganak,Kongiganak,28.0,-162.8806,59.96163177,0,0,0,0,0,1
EEK,Eek,Eek,27.0,-162.043869,60.21372223,0,0,0,0,0,1
PAEE,Eek,,24.0,-162.0438843,60.21369553,0,0,0,0,0,1
GNU,Goodnews,Goodnews,18.0,-161.5736694,59.1178627,0,0,0,0,0,1
PAQH,Quinhagak,Quinhagak,41.0,-161.8453674,59.75509262,0,0,121570,0,0,1
6AK1,Platinum Mine,Platinum,100.0,-161.7138977,58.91171646,,,,,,1
PAEH,Cape Newenham LRRS,Cape Newenham,378.0,-162.063797,58.6481514,0,0,0,0,0,1
PAPM,Platinum,Platinum,17.0,-161.8271942,59.0178299,0,0,118375,0,122800,1
PAKF,False Pass,False Pass,13.0,-163.4071045,54.84786224,0,0,121450,0,0,1
PAVC,King Cove,King Cove,145.0,-162.2665405,55.1163826,0,0,118325,0,0,1
PACD,Cold Bay,Cold Bay,89.0,-162.7262573,55.20591736,0,0,0,135750,0,1
PACS,Cape Sarichef,Cape Sarichef,291.0,-164.9144745,54.58243179,0,0,0,0,0,1
PFNO,Curtis Meml,Noorvik,48.0,-161.0222473,66.81752777,0,0,120000,0,0,1
PAIK,Bob Baker Memorial,Kiana,164.0,-160.4386902,66.97612762,0,0,119025,0,0,1
8AK3,Roland Norton Memorial Airstrip,Selawik,360.0,-160.152771,66.76604462,,,,,,1
PASK,Selawik,Selawik,13.0,-159.9857483,66.6001358,0,0,135650,0,0,1
PAFM,Ambler,Ambler,269.0,-157.8571625,67.10620117,0,0,132100,0,0,1
PABL,Buckland,Buckland,28.0,-161.1491394,65.98155212,0,0,135150,0,0,1
HAY,Haycock,Haycock,198.0,-161.1572113,65.20214844,0,0,0,0,0,1
PFKU,Koyukuk,Koyukuk,149.0,-157.7304382,64.87580872,0,0,0,0,0,1
PANU,Nulato,Nulato,384.0,-158.0742188,64.72933197,0,0,0,0,0,1
PAKV,Kaltag,,175.0,-158.7413025,64.31897736,0,0,0,135250,0,1
K40,Anvik,Anvik,52.0,-160.2054443,62.6562233,,,,,,1
PAGX,Grayling,Grayling,118.0,-160.066391,62.89208603,0,0,0,0,0,1
PAHX,Shageluk,Shageluk,78.0,-159.5692291,62.69230652,0,0,121575,0,122800,1
PAHC,Holy Cross,Holy Cross,74.0,-159.7749481,62.1883049,0,0,0,118325,0,1
FLT,Flat,Flat,309.0,-157.9890747,62.45264816,0,0,0,0,0,1
PFCR,Donlin Creek,,598.0,-158.2364044,62.03247833,,,,,,1
PALG,Kalskag,Kalskag,62.0,-160.3455811,61.5359726,0,0,119025,0,0,1
PANI,Aniak,Aniak,97.0,-159.5453033,61.58140564,0,0,124300,0,0,1
PFAK,Akiak,Akiak,40.0,-161.2305908,60.90289688,0,0,0,0,0,1
TLT,Tuluksak,Tuluksak,39.0,-160.9234467,61.08771896,0,0,0,0,0,1
ZNC,Nyac,Nyac,471.0,-159.9939117,60.98102951,,,,,,1
PACH,Chuathbaluk,Chuathbaluk,224.0,-159.2156372,61.57905579,0,0,0,0,0,1
CJX,Crooked Creek,Crooked Creek,180.0,-158.135025,61.86779785,0,0,0,0,0,1
A63,Twin Hills,Twin Hills,63.0,-160.2750397,59.07452393,0,0,0,0,0,1
4AK7,Aleknagik Mission School,Aleknagik,150.0,-158.5971985,59.28092194,,,,,,1
5A8,New Aleknagik,Aleknagik,57.0,-158.6178589,59.28255463,0,0,0,0,0,1
PATG,Togiak,Togiak Village,17.0,-160.3967743,59.05355453,0,0,119300,0,0,1
0Z3,Shannons Pond,Dillingham,90.0,-158.5837555,59.05344772,,,,,,1
17Z,Manokotak,Manokotak,42.0,-159.0498962,58.99023819,0,0,0,0,0,1
93AK,The Queens,Queens,25.0,-158.4722443,58.8715477,,,,,,1
PADL,Dillingham,Dillingham,70.0,-158.5054932,59.04466629,0,0,125000,0,125000,1
PAMB,Manokotak,,93.0,-158.901886,58.93205643,0,0,120625,0,0,1
PFCL,Clarks Point,,70.0,-158.5293884,58.83369446,0,0,135550,0,0,1
PAPH,Port Heiden,Port Heiden,86.0,-158.6333618,56.95909882,0,0,124400,0,0,1
PAPN,Pilot Point,Pilot Point,46.0,-157.5719604,57.58037949,0,0,118375,0,0,1
UGB,Ugashik Bay,Pilot Point,132.0,-157.7398682,57.42535782,0,0,0,0,0,1
A79,Chignik Lake,Chignik Lake,40.0,-158.777832,56.25545883,0,0,0,0,0,1
KCG,Chignik Fisheries,Chignik,16.0,-158.5895081,56.31792068,,,,,,1
KCL,Chignik Lagoon,Chignik Flats,25.0,-158.5344849,56.31096649,0,0,0,0,0,1
PAJC,Chignik,Chignik,14.0,-158.3732452,56.3114624,0,0,135750,0,0,1
PAAL,Port Moller Air Force Station,Cold Bay,20.0,-160.560791,56.00598526,,,,,,1
PAOU,Nelson Lagoon,Nelson Lagoon,12.0,-161.1603699,56.00753784,0,0,119025,0,0,1
Z52,Johnsons Landing,Bear Lake,130.0,-160.2662048,56.03668594,,,,,,1
PASD,Sand Point,Sand Point,21.0,-160.5214233,55.313694,0,0,134850,0,122800,1
PAPE,Perryville,,25.0,-159.1608276,55.90672302,0,0,0,0,0,1
DCK,Dahl Creek,Dahl Creek,260.0,-156.8913727,66.94255829,0,0,0,0,0,1
PAGH,Shungnak,Shungnak,189.0,-157.1624146,66.88808441,0,0,118525,0,0,1
PAOB,Kobuk,,139.0,-156.8973389,66.91233063,0,0,0,0,0,1
PABW,Barrow Airport,Barrow,626.0,-156.9438171,67.0766983,,,,,,1
2AK6,Hog River,Hogatza,534.0,-155.6848145,66.1761322,,,,,,1
PAHL,Huslia,Huslia,214.0,-156.3513947,65.69786072,0,0,135750,0,0,1
PAHS,Huslia,Huslia,191.0,-156.3786469,65.70276642,0,0,135750,0,122800,1
PAGA,Edward G Pitka Sr,Galena,149.0,-156.9345551,64.7361908,0,0,132525,0,0,1
1KC,Kalakaket Creek As,Kalakaket Creek,1598.0,-156.843338,64.42444611,,,,,,1
KCR,Colorado Creek,Colorado Creek,860.0,-155.9890442,63.56772232,,,,,,1
99AK,Moore Creek,Moore Creek,980.0,-157.1518097,62.59904099,,,,,,1
Z17,Ophir,Ophir,591.0,-156.5289154,63.1459198,,,,,,1
PPCT,Takotna,,421.0,-156.0297241,62.99294281,,,,,,1
AK40,Nixon Fork Mine,Mcgrath,1510.0,-154.7603302,63.22917938,,,,,,1
MDR,Medfra,Medfra,432.0,-154.7198486,63.1056633,,,,,,1
0AA4,Farewell,Farewell,1489.0,-153.890625,62.50918198,0,0,0,0,0,1
PASL,Sleetmute,Sleetmute,191.0,-157.1658478,61.70050812,0,0,134850,0,122800,1
RDV,Red Devil,Red Devil,180.0,-157.3502502,61.78805542,0,0,0,0,0,1
SRV,Stoney River 2,Stoney River,220.0,-156.5885315,61.78974915,0,0,0,0,0,1
2AK,Lime Village,Lime Village,543.0,-155.4403839,61.35913086,0,0,0,0,0,1
PASV,Sparrevohn LRRS,Sparrevohn,1465.0,-155.5748138,61.09711456,0,0,0,0,0,1
9Z8,Levelock,Levelock,53.0,-156.8598938,59.12708282,0,0,0,0,122950,1
PAJZ,Koliganek,Koliganek,254.0,-157.2602539,59.72674942,0,0,0,118525,0,1
KEK,Ekwok,Ekwok,130.0,-157.4711456,59.35683823,0,0,0,0,0,1
KLL,Levelock,Levelock,49.0,-156.8652496,59.11771393,0,0,0,0,0,1
KNW,New Stuyahok,New Stuyahok,304.0,-157.3283386,59.44986343,0,0,0,0,0,1
PANW,New Stuyahok,,349.0,-157.3731689,59.45152664,0,0,120275,0,0,1
PAIG,Igiugig,Igiugig,81.0,-155.9017792,59.32404327,0,0,119925,0,0,1
PANO,Nondalton,Nondalton,309.0,-154.8391724,59.98022842,0,0,0,0,0,1
4K0,Pedro Bay,Pedro Bay,74.0,-154.1299744,59.79694366,0,0,0,0,0,1
TPO,Port Alsworth,Port Alsworth,280.0,-154.3188782,60.20433426,,,,,,1
PABM,Big Mountain,Big Mountain,663.0,-155.2588196,59.36124802,,,,,,1
PFKK,Kokhanok,Kokhanok,110.0,-154.802597,59.43328476,0,0,0,0,0,1
PAIL,Iliamna,Iliamna,172.0,-154.9177551,59.75557709,0,0,0,0,134950,1
4AK9,Tibbetts,Naknek,50.0,-157.0071411,58.73426819,,,,,,1
5NK,Naknek,Naknek,68.0,-157.0252075,58.73466492,0,0,0,0,0,1
PAKN,King Salmon,King Salmon,65.0,-156.6486969,58.6764946,118300,128800,0,128800,122950,1
PFWS,South Naknek Nr2,South Naknek,151.0,-157.0025787,58.70208359,0,0,121575,0,0,1
AK60,Fort Jensen,Jensens,240.0,-157.096817,57.8850975,,,,,,1
PAII,Egegik,Egegik,83.0,-157.3754272,58.18548965,0,0,135650,0,0,1
PAKL,Kulik Lake,Kulik Lake,717.0,-155.0956116,58.96500397,0,0,0,0,0,1
9A8,Ugashik,Ugashik,35.0,-157.3959961,57.52342606,0,0,0,0,0,1
AK96,Bartletts,Egegik,25.0,-157.3859558,57.51641083,,,,,,1
PALB,Larsen Bay,Larsen Bay,79.0,-153.9766693,57.53508377,0,0,0,0,0,1
PAKY,Karluk,Karluk,141.0,-154.4538116,57.5660553,0,0,0,0,0,1
PAKH,Akhiok,Akhiok,41.0,-154.1825562,56.93869019,0,0,0,118325,122800,1
1AK1,Crevice Creek,Crevice Creek,840.0,-152.0160828,67.3728714,,,,,,1
PABT,Bettles,Bettles,641.0,-151.5290527,66.91394806,0,0,0,135450,0,1
PAPR,Prospect Creek,Prospect Creek,1089.0,-150.6436157,66.8140564,0,0,0,0,0,1
PAIM,Indian Mountain LRRS,Utopia Creek,1111.0,-153.7034912,65.99277496,,,,,,1
PATA,Calhoun Meml,Tanana,236.0,-152.1081085,65.1743927,0,0,0,135100,0,1
80A,American Creek,American Creek,503.0,-151.1772308,65.10398102,,,,,,1
PAML,Manley Hot Springs,Manley Hot Springs,275.0,-150.647583,64.98794556,0,0,0,0,122800,1
PAHE,Healy Airport,Healy,685.0,-150.8719177,65.08900452,,,,,,1
2K5,Telida,Telida,625.0,-153.2842102,63.37898636,0,0,0,0,0,1
5Z5,Kantishna,Kantishna,1566.0,-150.9950714,63.54098511,0,0,0,0,0,1
Z90,Stampede,Kantishna,1843.0,-150.3302612,63.75120544,0,0,0,0,0,1
8KA,Tatitna,Tatitna,1490.0,-153.3619537,62.29328537,,,,,,1
PAFL,Tin Creek,Farewell Lake,1182.0,-153.612793,62.53212357,0,0,0,0,0,1
6AK,Rainy Pass,Rainy Pass,1900.0,-152.7175293,62.08414078,0,0,0,0,0,1
33AK,Nugget Bench,Nugget Bench,2010.0,-150.945343,62.51725388,0,0,0,0,0,1
02AK,Rustic Wilderness,Willow,190.0,-150.097641,61.87691116,0,0,0,0,0,1
0AK3,Parker Lake,Montana Creek,250.0,-150.4910431,62.03482437,0,0,0,0,0,1
21AK,Montana Creek,Talkeetna,250.0,-150.066925,62.08261108,0,0,0,0,0,1
3AK3,Songlo Vista,Talkeetna,825.0,-150.2205048,62.56376648,0,0,0,0,0,1
PATK,Talkeetna,Talkeetna,360.0,-150.0927124,62.32137299,0,0,0,135200,123000,1
0AA5,Rangeview Airstrip,Y,470.0,-150.3358307,62.31277847,0,0,0,0,0,1
45AA,Davidson Strip,Willow,383.0,-150.5396118,62.16289902,0,0,0,0,0,1
51AK,Birch Creek Landing,Y,400.0,-150.0658112,62.2422905,,,,,,1
AK19,Carl's Landing,Y,300.0,-150.06427,62.17390442,0,0,0,0,0,1
1AK6,Talachulitna River,Sketna,282.0,-151.3979797,61.85614014,0,0,0,0,0,1
PABG,Beluga,Beluga,77.0,-151.0454102,61.17296219,0,0,0,0,122700,1
0AK9,Falcon Lake Strip,Anchorage,110.0,-150.0590515,61.33255005,0,0,0,0,0,1
25AK,Honeybee Lake Aero Park,Willow,200.0,-150.063324,61.71223831,0,0,0,0,0,1
36AK,Flyway Farm Airstrip,Wasilla,150.0,-150.0666351,61.34333801,0,0,0,0,0,1
3AK7,Laub,Willow,100.0,-150.338913,61.76557922,0,0,0,0,0,1
44AK,West Papoose Lake Airpark,Wasilla,230.0,-150.1024475,61.53344345,0,0,0,0,0,1
64AK,Carpentiers Strip,Anchorage,175.0,-150.0260925,61.43991089,0,0,0,0,0,1
8AK6,Little Susitna,Susitna Station,70.0,-150.2622223,61.37194443,0,0,0,0,0,1
AK36,Point Mac,Anchorage,123.0,-150.1223602,61.4360199,0,0,0,0,0,1
AK67,Skid Marks,Willow,64.0,-150.0727844,61.73860931,0,0,0,0,0,1
AK69,Long Lake,Willow,200.0,-150.0976715,61.72932053,0,0,0,0,0,1
AK72,Jewell,Willow,113.0,-150.5993347,61.70519257,0,0,0,0,0,1
AK90,Shirley Lake,Willow,185.0,-150.1154633,61.74472046,0,0,0,0,0,1
PAUO,Willow,Willow,206.0,-150.0517426,61.75418854,0,0,0,0,0,1
30AK,Doyle Estates,Kenai,50.0,-151.2600098,60.50275803,,,,,,1
3AK4,Johnson,Kenai,102.0,-151.3400116,60.63248825,,,,,,1
52AK,Basquo,Kenai,63.0,-151.2483521,60.50549698,0,0,0,0,0,1
5AK0,Trading Bay Production,Trading Bay,200.0,-151.7989197,60.81555176,,,,,,1
6AK3,Butler Aviation,Kenai,185.0,-151.2780762,60.7294426,,,,,,1
6Z1,Arness Lake,Kenai,110.0,-151.3037415,60.64572906,0,0,0,0,0,1
7AK3,Gaede,Soldotna,115.0,-151.1661072,60.47637177,,,,,,1
8AK2,Carty's Airstrip,Kenai,150.0,-151.2939758,60.70214844,,,,,,1
AK73,Mcgahan Industrial Airpark,Nikishka,150.0,-151.3022308,60.72527313,,,,,,1
PAEN,Kenai Muni,Kenai,96.0,-151.2448273,60.57327652,121300,133350,0,133350,0,1
PASX,Soldotna,Soldotna,100.0,-151.0396423,60.47513962,0,0,135450,0,0,1
1AK4,Rotor Air,Soldotna,200.0,-150.7536774,60.52415466,,,,,,1
40AK,Sterling Air Park,Sterling,275.0,-150.8490295,60.55121231,,,,,,1
53AK,Lakewood Airstrip,Sterling,299.0,-150.8564606,60.53385925,,,,,,1
6AK5,Fire Island,Anchorage,55.0,-150.160553,61.16833496,,,,,,1
7AK5,Dahler Homestead,Soldotna,300.0,-150.9355469,60.50359726,,,,,,1
7AK6,Dan France,Soldotna,293.0,-150.9286194,60.4758873,,,,,,1
88AK,Dutch Landing Strip,Sterling,300.0,-150.8680573,60.54027939,,,,,,1
AK39,South Gasline,Sterling,381.0,-150.1799469,60.69719696,,,,,,1
AK55,Moose Run Airstrip,Soldotna,290.0,-150.8016663,60.48916626,,,,,,1
AK01,Alaska Airpark,Sterling,336.0,-150.6251373,60.52898407,,,,,,1
AK05,Breeden,Sterling,365.0,-150.5992126,60.54104996,,,,,,1
AK18,Camp Point,Homer,8.0,-153.0808258,59.82854843,,,,,,1
0AK7,Bradley Lake Hydroelectri Project Airstrip,Homer,18.0,-150.9585114,59.77606964,,,,,,1
41AK,Winter's Strip,Kasilof,112.0,-151.3201752,60.31184387,,,,,,1
5KS,Kasilof,Kasilof,105.0,-151.2628479,60.35052109,0,0,0,0,0,1
AK17,Glacierview Strip,Homer,1600.0,-151.2165375,59.76703644,,,,,,1
NIN,Ninilchik,Ninilchik,276.0,-151.5894165,60.02023315,0,0,0,0,0,1
00AK,Lowell Field,Anchor Point,252.0,-151.692215,59.94889069,,,,,,1
2AK4,Oyster Cove,Homer,45.0,-151.5124969,59.47000122,,,,,,1
46AK,Bear Cove Farm,Homer,115.0,-151.029892,59.73828888,,,,,,1
4Z9,Jakolof Bay,Jakolof Bay,5.0,-151.5223846,59.45215988,0,0,0,0,0,1
AK07,Dog Fish Bay,Anchorage,10.0,-151.8749847,59.24616623,,,,,,1
PAHO,Homer,Homer,45.0,-151.4858093,59.64499283,0,135650,0,0,123000,1
PASO,Seldovia,Seldovia,29.0,-151.7050476,59.44390488,0,0,0,135400,0,1
PGM,Port Graham,Port Graham,93.0,-151.8303223,59.34847641,0,0,0,0,0,1
ORI,Port Lions,Port Lions,42.0,-152.8475647,57.88492584,0,0,0,0,0,1
PAKD,Kodiak Mun,Kodiak,139.0,-152.3738403,57.80588913,0,0,0,0,122800,1
PADQ,Kodiak,Kodiak,35.0,-152.4939423,57.74979401,119800,134450,0,0,122800,1
6R7,Old Harbor,Old Harbor,54.0,-153.2698364,57.2183075,,,,,,1
HI99,Sand Island,Kure Atol,15.0,-178.2969666,28.3893795,,,,,,1
PMDY,Henderson Field,"Midway Atoll, Sand I",15.0,-177.3813019,28.20148277,0,0,118325,0,0,1
PHFS,Tern I.,Tern I.,8.0,-166.2849884,23.8695507,,,,,,1
HI01,Princeville,Hanalei,344.0,-159.4455261,22.20918846,0,0,0,0,122800,1
HI03,Hanamaulu Airstrip,Hanamaulu,404.0,-159.3897095,22.04127884,,,,,,1
HI46,Hi 23 Airstrip,Puhi,480.0,-159.4272003,21.96574974,,,,,,1
PHPA,Port Allen,Hanapepe,24.0,-159.6031647,21.89694405,0,0,0,0,0,1
PHBK,Barking Sands PMRF,Kauai,16.0,-159.7850647,22.02276993,126200,0,0,0,122800,1
PHKE,Kekaha Airport,Kekaha,13.0,-159.7442932,21.97675896,,,,,,1
PHLI,Lihue,Lihue,103.0,-159.3389587,21.97598267,118900,127200,0,127200,0,1
NPS,Ford Island NALF,Honolulu,16.0,-157.9621277,21.36267662,,,,,,1
PHDH,Dillingham Airfield,Oahu,12.0,-158.1972809,21.5794754,0,0,0,0,123000,1
PHHI,Wheeler AAF,Wahiawa,831.0,-158.0378265,21.48144531,126300,119675,0,0,0,1
PHJR,Kalaeloa (John Rodgers Field),Kapolei,21.0,-158.0702972,21.30735207,0,0,0,119800,0,1
PHNG,Kaneohe Bay MCAS (Marion E Carl Field),Mokapu,18.0,-157.7679443,21.45045471,120700,0,0,0,0,1
PHNL,Honolulu Intl,Honolulu,6.0,-157.9202271,21.31781578,118100,127900,0,0,0,1
PLWN,Washington Island Airstrip,Napari Village,28.0,-160.3947296,4.698318481,,,,,,1
PLFA,Tabuaeran Island Airport,Napari Village,25.0,-159.3893127,3.899618387,,,,,,1
HI49,Panda,Kaunakakai,250.0,-157.2585754,21.14793015,,,,,,1
PHLU,Kalaupapa Apt.,Kalaupapa,23.0,-156.9736023,21.2110424,0,0,0,0,0,1
PHMK,Molokai,Kaunakakai,439.0,-157.0962524,21.15288544,0,128200,0,0,0,1
18HI,Brandt Field,Waialua,685.0,-156.7344513,21.13699913,,,,,,1
PHJH,Kapalua,Lahaina,248.0,-156.6730347,20.9629364,0,0,118525,0,122700,1
PHNY,Lanai,Lanai,1306.0,-156.951416,20.7856102,0,0,118375,0,0,1
PHWA,Waikapu Airport,Waikapu,66.0,-156.58255,20.80268669,,,,,,1
PHHN,Hana,Hana,65.0,-156.0144348,20.79563713,0,0,118325,0,0,1
PHOG,Kahului,Kahului,27.0,-156.4304657,20.89864922,118700,128600,0,0,122950,1
HI13,Puu Waa Waa Ranch,Kailua/Kona,2251.0,-155.8480225,19.79206276,,,,,,1
PHKO,Ellison Onizuka Kona Intl At K,Kailua-Kona,42.0,-156.0456238,19.73876762,120300,127400,0,127400,0,1
PHMU,Waimea-Kohala,Kamuela,2666.0,-155.6681061,20.00132751,0,0,120000,0,0,1
PHUP,Upolu,Hawi,86.0,-155.8599396,20.26519394,0,0,0,0,0,1
HI27,Upper Paauilo Airstrip,Paauilo,1520.0,-155.3880615,20.02832794,,,,,,1
HI32,Pepeekeo Airstrip,Pepeekeo,619.0,-155.1115723,19.84400749,,,,,,1
PHSF,Bradshaw Army Airfield,Pohakuloa,6190.0,-155.5537109,19.76005554,126300,124700,0,0,0,1
PHTO,Hilo Intl,Hilo,31.0,-155.0484619,19.72026443,118100,126400,0,0,0,1
HI23,Mountain View Airstrip,Mountain View,1500.0,-155.1083374,19.54752541,,,,,,1
HI25,Kaalaiki Airstrip,Naalehu,1964.0,-155.5780487,19.12282181,,,,,,1
HI28,Pahala Airstrip,Pahala,1195.0,-155.4686127,19.21615028,,,,,,1
PHHA,Hawaiian Paradise Park Airport,Hawaiian Paradise Park,586.0,-154.962677,19.51615715,,,,,,1
PLCH,Cassidy Intl,Christmas I,5.0,-157.349762,1.986214042,0,0,0,0,0,1
PLBA,Banana Village Airport,Banana Village,18.0,-157.1942139,1.762825251,,,,,,1
NLWF,Point Vele,Futuna I,16.0,-178.066391,-14.31166649,0,0,0,0,118300,1
NFKB,Kaibu Island Airport,Sigave,70.0,-179.4886169,-17.25444412,,,,,,1
NLAL,Alo Airport,Alo,6.0,-179.1635742,-17.43858337,,,,,,1
NLAO,Alo Airport,Alo,30.0,-178.7151642,-17.52588272,,,,,,1
NFOL,Ono-I-Lau Airport,Haveluloto,59.0,-178.7410889,-20.65887833,,,,,,1
NLWW,Hihifo,Uvea I,67.0,-176.199173,-13.2383337,0,0,0,0,118300,1
NFTO,Niuafo'Ou,,149.0,-175.6294403,-15.57178879,,,,,,1
NFTV,Vava'u,Vava'u,226.0,-173.9680481,-18.58558083,0,0,0,0,0,1
NFTL,Ha'Apai-Lifuka,Ha'Apai-Lifuka Island,21.0,-174.3403778,-19.77705765,0,0,0,0,118100,1
NFTF,Fua'Amotu Intl,Nuku'Alofa,109.0,-175.1404419,-21.24186134,118500,0,0,0,0,1
PCIS,Canton AFLD,Canton I,9.0,-171.7133331,-2.769999981,,,,,,1
NSFA,Faleolo Intl,Apia,34.0,-171.9980164,-13.83183861,118100,0,0,0,0,1
NSFI,Fagali,Fagali,122.0,-171.739563,-13.8492527,0,0,0,0,0,1
NSMA,Maota Airport,Vailoa,98.0,-172.2588806,-13.74281406,,,,,,1
NSTU,Pago Pago Intl,Pago Pago,13.0,-170.7115021,-14.33166122,0,0,127925,0,0,1
NSFQ,Fitiuta,"Tau Island, American Sam",105.0,-169.4235535,-14.21611118,0,0,0,0,0,1
NSAS,Ofu Village Apt.,"Ofu, American Samoa",12.0,-169.670105,-14.18434429,0,0,0,0,122950,1
NIUE,Niue Intl,Niue Island,198.0,-169.9266663,-19.07805634,0,0,0,0,0,1
NCPK,Pukapuka,,18.0,-165.8330536,-10.91328907,,,,,,1
NCMH,Manihiki,,10.0,-161.0007324,-10.37944984,,,,,,1
NCAI,Avarua,Aitutaki,18.0,-159.7640228,-18.83110237,0,0,0,0,0,1
NCAT,Enua,"Atiu, Cook Is",45.0,-158.1252136,-19.96653938,,,,,,1
NCMR,Mitiaro,,31.0,-157.7103882,-19.84107971,,,,,,1
NCRG,Rarotonga Intl,Rarotonga I,16.0,-159.7990417,-21.2012558,118100,0,0,0,118100,1
NTTB,Motu Mute,Bora Bora I,10.0,-151.7525024,-16.44361115,118900,0,0,0,0,1
NTTH,Fare,Huahine I,13.0,-151.0286102,-16.68833351,0,0,0,0,119300,1
NTTR,Uturoa,Raiatea I,6.0,-151.4669495,-16.72305489,118500,0,0,0,0,1
NTTU,Tupai Airport,Faanui,17.0,-151.8336945,-16.24238396,,,,,,1
NTAR,Rurutu,Rurutu Austral Is,25.0,-151.367218,-22.43166733,0,0,0,0,118300,1
NZCI,Chatham Is/Tuuta,Chatham Is,30.0,-176.4734192,-43.81382751,0,0,0,0,0,1
POLI,Oliktok LRRS,Oliktok Point,16.0,-149.8833313,70.49604797,0,0,0,0,0,1
PAKU,Ugnu-Kuparuk,Kuparuk,71.0,-149.598053,70.33066559,0,0,0,0,0,1
AK11,Point Mcintyre,Point Mcintyre,15.0,-148.6817017,70.40156555,0,0,0,0,0,1
PASC,Deadhorse,Deadhorse,64.0,-148.4657898,70.19554901,0,0,0,118400,118400,1
PAPU,Prudhoe Bay Airport,Prudhoe Bay,46.0,-148.3466644,70.25151825,,,,,,1
PABU,Bullen Point Air Force Station,Kaktovik,18.0,-146.8361053,70.17277527,,,,,,1
PABP,Badami,Deadhorse,22.0,-147.0304413,70.13746643,,,,,,1
PAAD,Point Thomson Airstrip,,52.0,-146.2900238,70.13600159,0,0,0,0,0,1
RK1,Kavik Strip,,668.0,-146.9000397,69.6767807,,,,,,1
FXM,Flaxman Island Airstrip,Prudhoe Bay,0.0,-146.0206146,70.1894455,,,,,,1
PABA,Barter Island,Barter I Lrrs,53.0,-143.6536102,70.1131134,0,0,121450,0,0,1
AK99,Brown Low Point,Camden Bay,85.0,-149.7611084,61.44666672,0,0,0,0,0,1
CYDY,Dawson City Airport,Dawson City,7.0,-140.1737518,69.59629059,,,,,,1
CYOC,Old Crow,Old Crow,811.0,-139.8398743,67.57006836,0,0,0,0,0,1
CYFP,Fort Mcpherson Airport,Fort Mcpherson,5.0,-138.7185059,69.33320618,,,,,,1
CYFF,Fort Mcpherson Airport,Fort Mcpherson,126.0,-137.233963,68.92945862,,,,,,1
CYKD,Aklavik,Aklavik,20.0,-135.0055542,68.22333527,0,0,0,0,0,1
CYUB,Tuktoyaktuk,Tuktoyaktuk,10.0,-133.0263519,69.4332428,0,0,0,0,0,1
CYEV,Zubko,Inuvik,208.0,-133.4830627,68.30388641,0,128500,0,0,0,1
PAWB,Beaver,Beaver,364.0,-147.4064941,66.36222076,0,0,0,0,0,1
SVS,Stevens Village,Stevens Village,327.0,-149.05336,66.01734161,0,0,0,0,0,1
31AK,Dalrymple's,Fairbanks,450.0,-147.4246368,64.83290863,,,,,,1
32AK,Hardrock Field,Fairbanks,664.0,-147.9139557,64.9092865,0,0,0,0,0,1
5AK3,Wrights,North Pole,480.0,-147.3338013,64.77318573,122900,0,0,0,0,1
95Z,Bradley Sky Ranch,North Pole,483.0,-147.3876343,64.75922394,0,0,0,0,122800,1
AK22,Lakloey Air Park,Fairbanks,475.0,-147.5216675,64.82167053,,,,,,1
AK28,Chena Marina,Fairbanks,427.0,-147.9185486,64.81402588,,,,,,1
MTF,Metro Fld,Fairbanks,432.0,-147.7624207,64.80678558,,,,,,1
PAFA,Fairbanks Intl,Fairbanks,432.0,-147.8564453,64.81510925,118300,124400,0,124400,0,1
PAFB,Ladd AAF,Ft Wainwright,445.0,-147.6144867,64.83760834,125000,134250,0,118525,0,1
PANN,Nenana Muni,Nenana,362.0,-149.0739746,64.54733276,0,0,0,125200,0,1
2Z3,Eva Creek,Eva Creek,2817.0,-148.8631439,64.04211426,,,,,,1
PAST,Summit,Summit,2409.0,-149.12883,63.33103943,0,0,0,0,0,1
11Z,Lignite,Lignite,1169.0,-149.0238953,63.91057587,0,0,0,0,0,1
15AK,Golden North Airfield,Cantwell,2250.0,-148.8503418,63.37065125,,,,,,1
AK06,Denali,Mckinley Park,2050.0,-148.7919922,63.64038086,,,,,,1
PAHV,Healy River,Healy,1265.0,-148.9688263,63.86758423,0,0,0,0,0,1
PAIN,Mckinley Natl Park,Mckinley Park,1720.0,-148.9106445,63.73259735,0,0,135750,0,0,1
PATW,Cantwell,Cantwell,2190.0,-148.9556122,63.39120483,0,0,0,0,0,1
2AK1,Blair Lake,Fairbanks /Ft Wainwright/,910.0,-147.3637543,64.36373901,,,,,,1
2AK2,Clear Creek,Fairbanks /Ft Wainwright/,660.0,-147.5634918,64.45346069,,,,,,1
AK32,Gold King Creek Air Force Station,Fairbanks,1678.0,-147.9294586,64.19831085,,,,,,1
AK7,Gold King Creek,,1678.0,-147.9290924,64.19825745,,,,,,1
0AK0,Scotts,North Pole,800.0,-146.8620758,64.39250183,,,,,,1
AK41,Greg'n Sage,North Pole,925.0,-146.844162,64.54389191,,,,,,1
0Z2,Road Commission Nr 1,Denali,2601.0,-147.5424194,63.10709381,,,,,,1
HNE,Tahneta Pass,Tahneta Pass Lodge,2959.0,-147.3088989,61.90090942,0,0,0,0,123050,1
Z14,Tazlina,Tazlina,2450.0,-146.4605255,62.06478882,0,0,0,0,0,1
5AK4,Snowshoe Lake Airport And Seaplane Base,Valdez,2380.0,-146.6749725,62.0328064,,,,,,1
05AK,Wasilla Creek Airpark,Palmer,633.0,-149.1873322,61.6686554,0,0,0,0,0,1
0AK1,Anderson Lake,Wasilla,463.0,-149.3215332,61.61688232,0,0,0,0,0,1
10AK,Hunt Strip,Wasilla,200.0,-149.6779175,61.5918808,0,0,0,0,0,1
13AK,Satterbergs,Houston,350.0,-149.8999939,61.65470123,0,0,0,0,0,1
14AK,Four Corners,Palmer,300.0,-149.2480011,61.60246658,0,0,0,0,0,1
16AK,Gattis Strip,Wasilla,320.0,-149.3469391,61.59916687,0,0,0,0,0,1
1AK7,Hardee Field,Eagle River,613.0,-149.3014221,61.25078964,,,,,,1
23AK,Yuknis,Wasilla,340.0,-149.31073,61.59408188,0,0,0,0,0,1
2D3,Gooding Lake,Palmer,500.0,-149.2390747,61.62771988,,,,,,1
34AK,Cardwell Strip,Palmer,425.0,-149.2885742,61.62503815,,,,,,1
38AK,Mels,Wasilla,340.0,-149.6678314,61.56245041,0,0,0,0,0,1
39AK,Gilmore Strip,Palmer,340.0,-149.2359772,61.58602905,0,0,0,0,0,1
3AK2,Niklason Lake Estates,Palmer,410.0,-149.2867279,61.62749863,0,0,0,0,0,1
3AK6,B & B Boys Ranch,Palmer,300.0,-149.2689362,61.59294891,0,0,0,0,0,1
3AK8,Boisselle's Strip,Wasilla,400.0,-149.3919067,61.66254044,0,0,0,0,0,1
42AK,Wicker,Wasilla,314.0,-149.4850311,61.56826782,,,,,,1
43AK,Kalmbach,Wasilla,445.0,-149.5791626,61.60076141,0,0,0,0,0,1
47AK,Highland,Eagle River,650.0,-149.5325012,61.29249954,0,0,0,0,0,1
4AK2,St John Homestead,Wasilla,250.0,-149.4240723,61.55798721,0,0,0,0,0,1
4AK6,Wolf Lake,Palmer,531.0,-149.2839508,61.63937378,0,0,0,0,0,1
55AK,Lawrence Airstrip,Wasilla,200.0,-149.6993256,61.49578094,0,0,0,0,0,1
56AK,Bechtol Field,Wasilla,300.0,-149.6070862,61.57526779,,,,,,1
58AK,Fairview East,Wasilla,100.0,-149.3396606,61.55258942,0,0,0,0,0,1
59AK,Penderosa,Wasilla,520.0,-149.3406067,61.63178253,0,0,0,0,0,1
5AK5,Todds Strip,Wasilla,492.0,-149.4617157,61.65708923,0,0,0,0,0,1
5AK6,Colberg,Palmer,125.0,-149.2682953,61.55701065,0,0,0,0,0,1
5AK8,Memory Lake,Wasilla,420.0,-149.4324188,61.63135147,0,0,0,0,0,1
5AK9,Grandview Subdivision,Palmer,150.0,-149.1903076,61.54851913,0,0,0,0,0,1
65AK,Fairview Landing,Wasilla,285.0,-149.3677673,61.56040955,0,0,0,0,0,1
67AK,South Hollywood,Wasilla,375.0,-149.670105,61.53463745,0,0,0,0,0,1
6AK7,Rainbow Heights Estates Airstrip,Wasilla,270.0,-149.6349945,61.57472229,0,0,0,0,0,1
6AK8,Tulakes,Wasilla,350.0,-149.6691895,61.6181488,0,0,0,0,0,1
71AK,Bluff Park Farm,Wasilla,110.0,-149.4963074,61.52763748,0,0,0,0,0,1
77AK,Tidewater Bluffs,Wasilla,80.0,-149.5956573,61.50267029,0,0,0,0,0,1
7AK4,Jack Fish Landing,Wasilla,150.0,-149.4606781,61.54148102,0,0,0,0,0,1
7AK8,Hess,Wasilla,355.0,-149.6149139,61.62125015,0,0,0,0,0,1
87AK,Soloy Strip,Wasilla,545.0,-149.2884827,61.65153122,0,0,0,0,0,1
89AK,Lincoln Village Airpark,Wasilla,250.0,-149.7054749,61.55938721,0,0,0,0,0,1
8AK8,North Cubs Strip Airport,Wasilla,350.0,-149.6825867,61.63000107,0,0,0,0,0,1
9AK6,Leisurewood Airstrip Owners Assoc,Wasilla,366.0,-149.6483002,61.62406158,0,0,0,0,0,1
9AK7,Cubdivision,Big Lake,250.0,-149.8166656,61.58983231,0,0,0,0,0,1
A89,Settlers Bay Airstrip,Wasilla,160.0,-149.6394348,61.50099182,,,,,,1
AK24,Hilltop,Chugiak,420.0,-149.4394836,61.41786194,0,0,0,0,0,1
AK25,Piper Landing,Wasilla,350.0,-149.6147461,61.61750031,0,0,0,0,0,1
AK27,Valley Flying Crown,Wasilla,400.0,-149.6244507,61.64258194,0,0,0,0,0,1
AK29,Reids Landing,Houston,246.0,-149.8522797,61.61259842,0,0,0,0,0,1
AK47,Shawn Field,Wasilla,300.0,-149.5633545,61.58568954,0,0,0,0,0,1
AK50,Sky Ranch At Pioneer Peak,Palmer,120.0,-149.14151,61.55463409,,,,,,1
AK63,Pat-Mar Strip,Palmer,246.0,-149.1425018,61.5886116,0,0,0,0,0,1
AK65,Green's Strip,Wasilla,300.0,-149.3505096,61.59794998,0,0,0,0,0,1
AK79,Hart Lake,Wasilla,500.0,-149.291687,61.63939285,0,0,0,0,0,1
AK83,Gannon's Landing,Wasilla,380.0,-149.6093292,61.62725067,0,0,0,0,0,1
AK89,Black Spruce,Houston,350.0,-149.8867188,61.65630722,0,0,0,0,0,1
AK93,Grouse Ridge,Palmer,535.0,-149.2734833,61.65518188,0,0,0,0,0,1
AK95,Twin Lake,Big Lake,185.0,-149.7790375,61.57036591,0,0,0,0,0,1
PAGQ,Big Lake,Big Lake,159.0,-149.8125458,61.53468323,0,0,0,0,0,1
PAAQ,Palmer Buddy Woods Muni,Palmer,233.0,-149.0887146,61.5949173,0,0,0,134750,0,1
PABV,Birchwood,Birchwood,73.0,-149.5083008,61.4160881,0,0,135550,0,123000,1
PAED,Elmendorf AFB,Anchorage,193.0,-149.8065186,61.25135422,127200,124300,0,0,0,1
PAFR,Bryant AHP,Bryant Ahp,375.0,-149.6533051,61.26589966,125000,134250,0,134250,0,1
PAMR,Merrill Field,Anchorage,128.0,-149.8447266,61.21354294,126000,124250,0,124250,122950,1
PANC,Ted Stevens Anchorage Intl,Anchorage,121.0,-149.9981384,61.17408752,118300,135500,0,0,122950,1
PAWS,Wasilla,Wasilla,345.0,-149.5395508,61.57198715,0,0,135250,0,0,1
Z40,Goose Bay,Goose Bay,78.0,-149.8422699,61.39464951,0,0,0,0,0,0
20AK,Owen Field,Big Lake,150.0,-149.8960419,61.50378799,,,,,,1
48AK,Graham,Sutton/Chickaloon,1010.0,-148.4924927,61.79309082,0,0,0,0,0,1
7AK9,Vinduska,Palmer,700.0,-149.0485382,61.64683151,0,0,0,0,0,1
A13,Bold,Anchorage,900.0,-148.9988861,61.34133911,,,,,,1
AK1,Butte Mun,Palmer,64.0,-149.0176392,61.5303154,0,0,0,0,0,1
AK46,Abi,Palmer,750.0,-149.0431824,61.62882996,0,0,0,0,0,1
AK53,Downwind Landing,Palmer,220.0,-148.9970703,61.58245468,,,,,,1
AK59,King Ranch,Sutton,1350.0,-148.3516693,61.79111099,0,0,0,0,0,1
AK66,Hunter Creek,Palmer,100.0,-148.7953644,61.45763397,0,0,0,0,0,1
AK88,Eagle Nest,Palmer,416.0,-149.0401917,61.60469818,0,0,0,0,0,1
5HO,Hope,Hope,176.0,-149.622818,60.90725327,0,0,0,0,0,1
9AK5,Sky Harbor,Anchorage,340.0,-149.8187714,61.11648178,0,0,0,0,0,1
AK12,Flying Crown,Anchorage,150.0,-149.8642731,61.10660172,0,0,0,0,0,1
AK92,Rabbit Creek,Anchorage,35.0,-149.8274078,61.07967758,0,0,0,0,0,1
AQY,Girdwood,Girdwood,149.0,-149.1193542,60.96902084,0,0,0,0,0,1
CSR,Campbell,Anchorage,286.0,-149.7806091,61.15869904,0,0,0,0,0,1
JLA,Quartz Creek,Cooper Landing,463.0,-149.7229004,60.48426437,0,0,0,0,0,1
PAWR,Whittier,Whittier,29.0,-148.7196503,60.77716827,0,0,0,0,0,1
PASP,Sheep Mountain,Sheep Mountain,2758.0,-147.5090485,61.8112793,0,0,0,0,122800,1
PFCB,Chenega Bay,Chenega,66.0,-147.9947357,60.07855988,0,0,0,0,0,1
Z91,Birch Creek,Birch Creek,440.0,-145.8181915,66.2744751,0,0,0,0,0,1
PFYU,Fort Yukon,Ft Yukon,447.0,-145.2463379,66.57241821,0,0,125800,0,0,1
PACI,Chalkyitsik,Chalkyitsik,537.0,-143.7398834,66.64502716,0,0,0,0,0,1
PACE,Central,Central,926.0,-144.7808838,65.57394409,0,0,0,0,0,1
CHP,Circle Hot Springs,Circle Hot Springs,849.0,-144.6116791,65.48590851,0,0,0,0,0,1
AK13,Chena Hot Springs,Chena Hot Springs,1195.0,-146.0474243,65.05182648,0,0,0,0,0,1
PACR,Circle City (New),Circle,611.0,-144.0762024,65.82791901,0,0,0,0,0,1
L20,Coal Creek,Yukon Charley Rivers,861.0,-143.1341248,65.31152344,0,0,0,0,0,1
4AK8,Tetlin,Tetlin,200.0,-158.7389679,61.5363121,,,,,,1
11AK,Delta Airmotive,Delta Junction,1190.0,-145.5023193,63.99960709,,,,,,1
9AK4,Arctic Angel,Delta Junction,1009.0,-145.8303833,64.13735962,,,,,,1
D66,Delta Junction,Delta Junction,1150.0,-145.7224731,64.05011749,0,0,0,0,0,1
PABI,Allen AAF,Delta Junction/Ft Greely,1266.0,-145.7200623,63.99516678,119800,132075,0,135650,0,1
HKB,Healy Lake Airport,Deltana,1150.0,-144.6929169,63.99576569,,,,,,1
45AK,Cherokee,Delta Junction,1300.0,-145.4700928,63.96182632,,,,,,1
5BK,Black Rapids,Black Rapids,2125.0,-145.8608856,63.53514862,0,0,0,0,0,1
AK77,All West,Delta Junction,1275.0,-145.422226,63.94142914,,,,,,1
PADA,Deltana Airport,Deltana,1289.0,-145.0989685,63.8598671,,,,,,1
PFTO,Tok Junction,Tok,1643.0,-142.9536896,63.32951355,0,0,0,0,122800,1
8AK9,Tok 2,Tok,1630.0,-143.0233459,63.29992676,,,,,,1
PATJ,Tok,Tok,1675.0,-143.0012054,63.30361938,0,0,0,0,0,1
TSG,Tanacross,Tanacross,1551.0,-143.3289948,63.3740654,0,0,0,0,0,1
4AK5,Mankomen Lake,Mankomen Lake,3050.0,-144.4799957,62.98988342,,,,,,1
PADB,Deltana Airport,Deltana,1941.0,-144.6236572,62.60961151,,,,,,1
3Z5,Brenwicks,Glennallen,1173.0,-145.4255219,62.06151581,0,0,0,0,0,1
8AK1,Jacobus,Gulkana,1670.0,-145.3627625,62.28028488,,,,,,1
PAGK,Gulkana,Gulkana,1562.0,-145.4552917,62.15433502,0,0,0,134850,0,1
CZO,Chistochina,Chistochina,1857.0,-144.6724396,62.56233215,0,0,0,0,0,1
Z93,Copper Center Nr2,Copper Center,1150.0,-145.2940826,61.94118881,0,0,0,0,0,1
DDT,Duffys Tavern,Slana,2420.0,-143.920517,62.72460938,,,,,,1
3T4,Tetlin,,1669.0,-142.5185547,63.12469482,,,,,,1
IBN,Devils Mountain Lodge,Nabesna,2880.0,-142.9954681,62.40184784,,,,,,1
K55,Thompson Pass,Thompson Pass,2080.0,-145.6884308,61.17726898,0,0,0,0,0,1
CXC,Chitina,Chitina,547.0,-144.4298096,61.58320236,0,0,0,0,0,1
PACO,Cordova Airport,Cordova,1507.0,-145.1812744,61.66052246,,,,,,1
CKU,Cordova Mun,Cordova,54.0,-145.7258606,60.54364395,0,0,0,0,0,1
PACV,Merle K (Mudhole) Smith,Cordova,45.0,-145.4775543,60.49177933,123600,0,0,134800,0,1
AK97,Boswell Bay,Boswell Bay,230.0,-146.1459045,60.42306519,,,,,,1
CYDI,Dawson City Airport,Dawson City,2116.0,-141.6438751,66.80944061,,,,,,1
PAEG,Eagle,Eagle,904.0,-141.1496124,64.7780838,0,0,0,135550,122800,1
CKX,Chicken,Chicken,1640.0,-141.951355,64.06674957,0,0,0,0,122800,1
BYA,Boundary,Boundary,2940.0,-141.1133728,64.07830048,0,0,0,0,0,1
CYDT,Dawson City Airport,Dawson City,2016.0,-140.7422638,64.47609711,,,,,,1
CYDA,Dawson,Dawson,1209.0,-139.1300659,64.04216766,0,0,0,0,0,1
4Z5,Horsfeld,Horsfeld,3620.0,-141.1821136,62.00723267,,,,,,1
CYXQ,Beaver Creek,Beaver Creek,2123.0,-140.8687592,62.41016006,0,0,0,0,0,1
CYDB,Burwash,Burwash,2625.0,-139.0399933,61.37055588,0,0,0,0,0,1
19AK,Icy Bay,Icy Bay,50.0,-141.6617737,59.96902084,,,,,,1
0AA1,Yakataga,Yakataga,11.0,-142.4934845,60.08201218,0,0,0,0,0,1
A67,Harlequin Lake,Yakutat,113.0,-139.0337219,59.41439819,,,,,,1
A68,Situk,Yakutat,59.0,-139.5102234,59.5528717,,,,,,1
A70,Dangerous River,Yakutat,29.0,-139.2330322,59.40470505,,,,,,1
PAYA,Yakutat,Yakutat,34.0,-139.6602631,59.5033226,0,0,0,135750,0,0
CFQ6,Pelly Crossing,Pelly Crossing,1869.0,-136.5276947,62.83750153,0,0,0,0,0,1
CEX4,Carmacks,Carmacks,1770.0,-136.1783905,62.11083221,0,0,0,0,0,1
CYHQ,Haines Junction Airport,Haines Junction,1726.0,-136.3039551,62.10774231,,,,,,1
CFQ5,Silver City,Silver City,2570.0,-138.4075012,61.0288887,0,0,0,0,0,1
CYHT,Haines Junction,Haines Junction,2128.0,-137.5452423,60.78948975,0,0,0,0,0,1
CEK2,Braeburn,Braeburn,2400.0,-135.7763824,61.48444366,0,0,0,0,0,1
CFP8,Cousins,Whitehorse,2200.0,-135.1822968,60.81177521,0,0,0,0,0,1
CYXY,Whitehorse Intl,Whitehorse,2284.0,-135.067276,60.70955276,118300,125250,0,0,0,1
A57,Alsek River,Yakutat,53.0,-138.4458771,59.19913483,,,,,,1
A69,Tanis Mesa,Yakutat,175.0,-138.5041656,59.24959564,,,,,,1
AK76,East Alsek River,Yakutat,36.0,-138.4088287,59.12628555,,,,,,1
PAGY,Skagway,Skagway,44.0,-135.316864,59.46020126,0,0,0,135800,0,1
PAHN,Haines,Haines,13.0,-135.5235443,59.24383163,0,0,0,135700,0,1
PAGS,Gustavus,Gustavus,32.0,-135.7074127,58.42527771,0,0,125900,0,0,1
PAOH,Hoonah,Hoonah,18.0,-135.4087524,58.09619904,0,0,132050,0,0,1
PASI,Sitka Rocky Gutierrez,Sitka,25.0,-135.3610687,57.04683304,0,0,0,135900,122950,0
CZFA,Faro,Faro,2342.0,-133.3734131,62.20695114,0,0,0,0,0,1
CFA4,Carcross,Carcross,2161.0,-134.6977844,60.17416763,0,0,0,0,0,1
CYSQ,Atlin,Atlin,2338.0,-133.6713867,59.57638931,0,0,0,0,0,1
PAJN,Juneau Intl,Juneau,24.0,-134.578476,58.35470963,118700,135200,0,0,0,0
7AK2,Snettisham,Snettisham,14.0,-133.7295074,58.1343956,,,,,,1
BD7,Muddy Lake,Muddy Lake,3189.0,-132.3253326,58.19529343,0,0,0,0,123200,1
PAFE,Kake,Kake,150.0,-133.9102631,56.96136475,0,0,0,0,0,1
PAPG,Petersburg James A Johnson,Petersburg,109.0,-132.946228,56.80147171,122500,0,0,0,0,1
PAWG,Wrangell,Wrangell,35.0,-132.3698273,56.48433304,0,0,128500,0,0,1
PAKW,Klawock,Klawock,59.0,-133.076004,55.57922363,0,0,0,135450,0,1
PAKE,Ketchikan Airport,Ketchikan,21.0,-131.4850464,56.21879578,,,,,,1
PAKT,Ketchikan Intl,Ketchikan,87.0,-131.7112274,55.35408401,0,0,0,134450,122950,1
PANT,Annette Island,Annette Island,97.0,-131.5708923,55.04229355,0,0,0,135750,0,1
CZMT,Masset,Masset,17.0,-132.125,54.02722168,0,0,0,0,0,1
CYZP,Sandspit,Sandspit,19.0,-131.8138123,53.2542572,0,0,122550,0,0,1
CYGH,Ft Good Hope,Ft Good Hope,249.0,-128.6475983,66.24063873,0,0,0,0,0,1
CFT3,Finlayson Lake Airport,Watson Lake,3094.0,-130.7738953,61.69138718,,,,,,1
CYQH,Watson Lake,Watson Lake,2250.0,-128.8224182,60.11645126,0,0,122975,0,0,1
CYDL,Dease Lake,Dease Lake,2614.0,-130.0313873,58.42230988,0,0,128700,0,0,1
CBM5,Telegraph Creek,Telegraph Creek,952.0,-131.1272736,57.91335678,0,0,0,0,0,1
CBU2,Iskut Village,Eddontenajon,3053.0,-129.9856415,57.84846497,0,0,0,0,0,1
CBW4,Bob Quinn Lake,Bob Quinn Lake,1964.0,-130.2493134,56.96675873,,,,,,1
4Z7,Hyder,Hyder,0.0,-130.0066986,55.90332031,,,,,,1
CYTC,Nass Camp Airstrip,Terrace,577.0,-128.9958954,55.29142761,,,,,,1
CYSI,Private Airstrip,Smithers,1055.0,-127.7011642,55.46704865,,,,,,1
CYSO,Seeley Lake Field,Smithers,1017.0,-127.7126617,55.19314194,,,,,,1
CYSS,Witwer Airfield,Smithers,1060.0,-127.8661346,55.53586197,,,,,,1
CYPR,Prince Rupert,Prince Rupert,105.0,-130.4446716,54.28583527,0,0,128575,0,0,1
CBW2,Kitimat,Kitimat,250.0,-128.5808258,54.16388702,0,0,0,0,0,1
CYXT,Terrace,Terrace,690.0,-128.5783844,54.46854782,0,0,0,0,0,1
CBBC,Bella Bella (Campbell I),Bella Bella,122.0,-128.1567841,52.18511581,0,0,0,0,0,1
CYJQ,Bella Bella (Denny I),Bella Bella,162.0,-128.0636139,52.13972092,0,0,0,0,0,1
CYVQ,Norman Wells,Norman Wells,236.0,-126.7985687,65.28132629,0,0,0,0,0,1
CZFN,Tulita,Tulita,324.0,-125.5693817,64.90971375,0,0,0,0,0,1
CBH4,Prairie Creek,Prairie Creek,2950.0,-124.8150024,61.56472015,0,0,0,0,122800,1
CFP6,La Biche River,La Biche River,1356.0,-124.0486145,60.12916565,0,0,0,0,122800,1
CBK7,Mile 422 (Alaska Highway),Toad River,2400.0,-125.2399979,58.84944534,0,0,0,0,0,1
CAJ9,Ft Ware,Ft Ware,2493.0,-125.6493683,57.42941284,0,0,0,0,0,1
CBF2,Finbow,Finbow,2400.0,-125.4510193,57.27166748,0,0,0,0,0,1
CAP6,Ingenika,Ingenika,2230.0,-124.8966675,56.79055405,0,0,0,0,0,1
CBN9,Tsay Keh,Tsay Keh,2278.0,-124.9660492,56.90702057,0,0,0,0,0,1
CBT8,Swannell,Swannell,2280.0,-125.1163483,56.72420883,,,,,,1
CBA9,Ospika,Ospika,2334.0,-124.063858,56.27074051,,,,,,1
CBW3,Fort Graham,Fort Graham,2230.0,-124.4683304,56.52166748,0,0,0,0,0,1
CBD5,Takla Narrows,Takla Narrows,2380.0,-125.7041702,55.16444397,0,0,0,0,122800,1
CYGS,Burns Lake Airport,Burns Lake,2795.0,-124.6926041,55.76754379,,,,,,1
CAH5,Leo Creek,Leo Creek,2383.0,-125.6147003,55.1202774,0,0,0,0,0,1
CAM5,Houston,Houston,2150.0,-126.7833328,54.43333435,0,0,0,0,0,1
CYYD,Smithers,Smithers,1707.0,-127.1828384,54.82535934,0,0,0,0,0,1
CYPZ,Burns Lake,Burns Lake,2343.0,-125.9513779,54.37646103,0,0,0,0,0,1
CYJM,Perison,Ft St James,2364.0,-124.2627792,54.39722061,0,0,0,0,0,1
CBZ9,Fraser Lake,Fraser Lake,2690.0,-124.7683334,54.01333237,,,,,,1
CAU4,Vanderhoof,Vanderhoof,2226.0,-124.0111847,54.04673767,0,0,0,0,0,1
YRD,Dean River Airport,Houston,46.0,-126.9649353,52.82423782,,,,,,1
CYBD,Bella Coola,Bella Coola,117.0,-126.5958328,52.38750076,0,0,0,0,0,0
CAE4,Tsacha Lake,Tsacha Lake,3419.0,-124.8443146,53.01930618,0,0,0,0,0,1
CBT3,Pan Phillips,Tsetzi Lake,3550.0,-125.0266647,52.9719429,,,,,,1
CAS2,Moose Lake (Lodge) Airport,Burns Lake,3500.0,-125.4091644,53.07333374,,,,,,1
CAJ4,Anahim Lake,Anahim Lake,3639.0,-125.3044434,52.45209503,0,0,0,0,122800,1
CYPU,Puntzi Mountain,Puntzi Mountain,2985.0,-124.144722,52.11277771,0,0,0,0,0,1
CYZT,Port Hardy,Port Hardy,53.0,-127.3666611,50.6805954,0,0,0,0,0,1
CBX3,Chilanko Lodge,Kleena Kleene,2988.0,-124.8857117,51.95726395,0,0,0,0,0,1
CAF4,Tsuniah Lake Lodge,Tsuniah Lake,4000.0,-124.1666641,51.53333282,0,0,0,0,0,1
CAG3,Chilko Lake (Tsylos Park Lodge) Airport,Chilko Lake,3850.0,-124.1419449,51.62611008,0,0,0,0,122800,1
CAG4,Twin Lakes,Twin Lakes,3945.0,-123.8248901,51.56528854,0,0,0,0,0,1
CBL9,Elkin Creek Guest Ranch Airport,Hanceville,4080.0,-123.8044434,51.51277924,,,,,,1
CBA7,Scar Creek,Scar Creek,282.0,-125.039032,51.17945862,0,0,0,0,0,1
CAK4,Woss,Woss,415.0,-126.6206207,50.21585846,0,0,0,0,0,1
CAT5,Port Mcneill,Port Mcneill,225.0,-127.0286102,50.57555389,0,0,0,0,0,1
CYAL,Alert Bay,Alert Bay,220.0,-126.9157867,50.58232117,0,0,0,0,122800,1
CCI9,Hansen Airfield,Cortes Island,164.0,-124.984169,50.02361298,,,,,,1
CYBL,Campbell River,Campbell River,328.0,-125.273056,49.95194626,0,0,0,0,0,1
CYCM,Stuart Island Airstrip,Campbell River,325.0,-125.1314011,50.40934753,,,,,,1
CAH3,Courtenay,Courtenay,9.0,-124.9816666,49.67944336,0,0,0,0,0,1
CBS8,Alberni Valley Regional,Port Alberni,243.0,-124.9295502,49.32105637,0,0,122700,0,0,1
CCS6,Courtenay (Smit Field),Courtenay,500.0,-125.0983353,49.66666794,0,0,0,0,0,1
CYQQ,Comox,Comox,75.0,-124.8866653,49.7108345,126200,118600,0,0,0,1
CAT4,Qualicum Beach,Qualicum Beach,176.0,-124.3938751,49.33729553,0,0,0,0,0,1
CYGB,Gillies Bay,Texada,326.0,-124.5177765,49.69416809,0,0,0,0,0,1
CYPW,Powell River,Powell River,397.0,-124.5002747,49.83407974,0,0,0,0,0,1
CYAZ,Tofino,Tofino,77.0,-125.7723923,49.0820694,127925,0,0,0,123250,1
CYUC,Bamfield Airstrip,Ucluelet,203.0,-125.1192551,48.8205986,,,,,,1
CYCD,Nanaimo,Nanaimo,83.0,-123.8700027,49.05444336,0,128425,0,0,0,1
11S,Sekiu,Sekiu,333.0,-124.3139648,48.2661171,0,0,0,0,0,1
KUIL,Quillayute,Quillayute,182.0,-124.5626297,47.93658447,122900,0,0,0,0,1
S18,Forks,Forks,299.0,-124.3959198,47.93772125,0,0,0,0,0,1
14S,Westport,Westport,7.0,-124.1007462,46.89694977,0,0,0,0,0,1
2S9,Willapa Harbor,South Bend-Raymond,13.0,-123.8233871,46.69762039,0,0,0,0,0,1
5WA8,Hogan's Corner,Ocean Shores,50.0,-124.1457291,47.04286575,,,,,,1
94WA,Wishkah River Ranch,Aberdeen,36.0,-123.7737808,47.08481216,,,,,,1
KHQM,Bowerman,Hoquiam,16.0,-123.936554,46.97119522,0,0,0,135775,122700,1
W04,Ocean Shores Mun,Ocean Shores,13.0,-124.1423798,46.99921799,0,0,0,0,0,1
43IG,Grayland Intergalactic,Westport,280.0,-124.0729446,46.80152893,,,,,,0
56S,Seaside Mun,Seaside,11.0,-123.9076614,46.01499557,0,0,0,0,0,1
7W1,Port Of Ilwaco,Ilwaco,13.0,-124.0038376,46.3149147,0,0,0,0,0,1
KAST,Astoria Rgnl,Astoria,12.0,-123.8786087,46.15797043,0,0,0,135375,122800,1
WA01,Wirkkala,Naselle,35.0,-123.8145981,46.35621262,,,,,,1
3S7,Nehalem Bay State,Manzanita,20.0,-123.9296417,45.69813919,0,0,0,0,0,1
KPFC,Pacific City State,Pacific City,10.0,-123.9618912,45.19935989,122900,0,0,0,0,1
KTMK,Tillamook,Tillamook,31.0,-123.8143921,45.41825104,0,0,120000,0,122800,1
CYWJ,Deline,Deline,703.0,-123.4365234,65.21118164,0,0,0,0,0,1
CYWY,Wrigley,Wrigley,484.0,-123.4367599,63.20959854,0,0,0,0,0,1
CBN6,Mount Flett,Mount Flett,703.0,-123.5839844,60.66004562,0,0,0,0,0,1
CET4,Fort Simpson Island,Ft Simpson Island,405.0,-121.3661118,61.86666489,0,0,0,0,0,1
CYFS,Ft Simpson,Ft Simpson,547.0,-121.2365265,61.76015472,0,0,0,0,0,1
CYFG,Fort Nelson Airport,Fort Nelson,770.0,-121.7998428,61.34805679,,,,,,1
CYFL,Fort Nelson Airport,Fort Nelson,712.0,-121.2466278,61.44976044,,,,,,1
CET9,Jean Marie River,Jean Marie River,453.0,-120.6248703,61.52236938,0,0,0,0,0,1
CYJF,Ft Liard,Ft Liard,707.0,-123.4700089,60.23547745,0,0,0,0,0,1
CEU9,Trout Lake,Trout Lake,1618.0,-121.2695999,60.42349625,0,0,0,0,0,1
CBV6,Petitot,Petitot,1536.0,-121.8663025,59.73945999,0,0,0,0,0,1
CBH2,Helmet,Helmet Gas Plant,1904.0,-120.7975159,59.42577362,0,0,0,0,122800,1
CBL3,Gordon Field,Fort Nelson,1625.0,-122.7833328,58.81666565,,,,,,1
CYYE,Ft Nelson,Ft Nelson,1244.0,-122.5969772,58.83639908,0,0,0,0,0,1
BL8,Yoyo,Yoyo,1936.0,-121.4719162,58.92476273,,,,,,1
CBX2,Mobil Sierra,Fort Nelson,1870.0,-121.3931885,58.83420181,0,0,0,0,122800,1
CYFK,Fort St. John Airport,Fort St. John,1589.0,-120.9088211,58.04121017,,,,,,1
CBZ3,Charlie Lake,Fort St. John,2585.0,-121.0088654,56.30055237,0,0,0,0,0,1
CYNH,Hudson's Hope,Hudson's Hope,2220.0,-121.9682007,56.03328705,0,0,0,0,0,1
CYZY,Mackenzie,Mackenzie,2264.0,-123.1333847,55.29946899,0,0,0,0,0,1
CYCQ,Chetwynd,Chetwynd,1995.0,-121.6266479,55.68721771,0,0,0,0,0,1
CYDQ,Dawson Creek,Dawson Creek,2145.0,-120.1830597,55.74226379,0,0,0,0,0,1
CYXJ,Ft St John,Ft St John,2246.0,-120.7402878,56.23837662,0,128500,0,0,0,1
CDC3,Dawson Creek (Flying L Ranch) Airport,Dawson Creek,2680.0,-120.4527817,55.82805634,,,,,,1
CBX7,Tumbler Ridge,Tumbler Ridge,3058.0,-120.9309998,55.02734756,0,0,0,0,0,1
CBA8,Beaverley,Beaverley,2420.0,-122.9075012,53.85555649,0,0,0,0,0,1
CBW8,North Cariboo Air Park,Prince George,2500.0,-123.0228577,54.00786972,,,,,,1
CYXS,Prince George,Prince George,2237.0,-122.6775513,53.88403702,118300,128725,0,0,0,1
CYQZ,Quesnel,Quesnel,1784.0,-122.5103683,53.02607727,0,0,0,0,0,1
CYWL,Williams Lake,Williams Lake,3078.0,-122.0543365,52.18340683,0,0,0,0,0,1
CYWI,Dugan Lake Air Strip,Williams Lake,3123.0,-121.9569778,52.19769669,,,,,,1
CAS3,Barkerville,Barkerville,4023.0,-121.5143738,53.08748245,0,0,0,0,0,1
CAV4,Mcbride,Mcbride,2350.0,-120.1705551,53.31499863,0,0,0,0,0,1
CYWB,Williams Lake Airport,Williams Lake,3609.0,-120.7491684,52.76769257,,,,,,1
CAX5,Likely,Likely,3225.0,-121.5,52.61666489,0,0,0,0,0,1
CBK6,Quesnel Lake,Quesnel Lake,2500.0,-121.0449982,52.51499939,,,,,,1
CAW3,Scum Lake,Scum Lake,3925.0,-123.5811234,51.7955513,0,0,0,0,0,1
BF3,Riske Creek,Riske Creek,2990.0,-122.5088806,51.95866776,,,,,,1
CAQ4,Springhouse Airpark,Springhouse,3250.0,-122.1394424,51.95555496,0,0,0,0,122800,1
CAY2,Gang Ranch,Gang Ranch,2153.0,-122.3278122,51.55187988,0,0,0,0,0,1
CYLI,Lillooet,Lillooet,1320.0,-121.8936081,50.67472076,0,0,0,0,0,1
CBJ4,Echo Valley,Echo Valley,3650.0,-121.9941635,51.24166489,,,,,,1
CAV3,One Hundred Mile House,One Hundred Mile House,3055.0,-121.3069458,51.64250183,0,0,0,0,0,1
CBG2,Green Lake,Green Lake,3550.0,-121.2097244,51.42944336,0,0,0,0,0,1
CZML,108 Mile,108 Mile Ranch,3110.0,-121.3328934,51.73659897,0,0,0,0,0,1
CDC5,Dougall Campbell Field,Williams Lake,3027.0,-121.211113,52.01083374,,,,,,1
CAZ5,Cache Creek,Cache Creek,2019.0,-121.321167,50.77500153,0,0,0,0,0,1
CYIN,Bleibler Ranch,,3688.0,-121.684639,51.26634598,,,,,,1
CYKA,Kamloops,Kamloops,1131.0,-120.4486084,50.70251083,0,0,0,0,0,1
CYPS,Pemberton,Pemberton,670.0,-122.7377777,50.30250168,0,0,0,0,0,1
CAP3,Sechelt-Gibsons,Sechelt-Gibsons,300.0,-123.7186127,49.46055603,0,0,0,0,0,1
CYSE,Squamish,Squamish,171.0,-123.1619415,49.7816658,0,0,0,0,122800,1
CYCV,Pretty Estates Resort Airport,Chilliwack,42.0,-121.9460297,49.25241852,,,,,,1
CYLY,Lytton,Lytton,921.0,-121.5694199,50.24389648,,,,,,1
CAD5,Merritt,Merritt,2063.0,-120.7450867,50.12285614,0,0,0,0,0,1
CAL3,Douglas Lake,Douglas Lake,2700.0,-120.1833344,50.16666794,0,0,0,0,0,1
CBT6,Quilchena,Quilchena,2064.0,-120.5069122,50.1621666,0,0,0,0,0,1
CYKS,Knutsford Airstrip,Kamloops,2863.0,-120.3091888,50.59845352,,,,,,1
CYHE,Hope,Hope,128.0,-121.4980545,49.36833191,0,0,0,0,0,1
CYDC,Princeton,Princeton,2294.0,-120.5124741,49.46788788,0,0,0,0,0,1
1RL,Point Roberts Airpark,Point Roberts,9.0,-123.0792236,48.97713852,0,0,0,0,122800,1
1WA9,Friday West,Friday Harbor,150.0,-123.044899,48.53509903,,,,,,0
2WA3,Stuart Island West,Friday Harbor,200.0,-123.2096329,48.68454361,0,0,0,0,0,1
38WA,Blakely Island,Blakely Island,66.0,-122.8262939,48.57899094,,,,,,1
4WA4,Windsock,Lopez,30.0,-122.8873978,48.54148865,,,,,,1
6WA5,Wilding Farm,Shaw Island,60.0,-122.9436188,48.57561493,,,,,,1
7WA5,Stuart Island Airpark,Stuart Island,10.0,-123.1757431,48.67287827,,,,,,1
90WA,Waldronaire,East Sound,140.0,-123.0182419,48.7117691,,,,,,1
CAK3,Delta Heritage Air Park,Delta Air Park,10.0,-122.9380569,49.07860947,0,125500,0,0,0,1
CAM3,Duncan,Duncan,300.0,-123.7098465,48.754776,0,0,0,0,0,1
CML2,Raven Field,Duncan,130.0,-123.6505585,48.81194305,,,,,,1
CSK8,Surrey - King George Airpark,Surrey,2.0,-122.8228912,49.09313965,,,,,,1
CYVR,Vancouver Intl,Vancouver,9.0,-123.1839676,49.19469833,118700,124600,0,0,0,0
CYYJ,Victoria Intl,Victoria,53.0,-123.4274445,48.64805984,119100,118800,0,0,0,1
CZBB,Vancouver/Boundary Bay,Boundary Bay,5.0,-123.0084,49.07347107,118100,125500,0,0,0,1
KORS,Orcas I,Eastsound,23.0,-122.9105911,48.70833588,0,0,135425,0,0,1
WA09,Roche Harbor,Roche Harbor,100.0,-123.1385193,48.61232376,0,0,0,0,128250,1
WA35,Clam Harbor,Eastsound,220.0,-122.9471283,48.6223259,,,,,,1
CLH3,Long Harbour,,40.0,-123.4745865,48.85819626,,,,,,1
38W,Lynden,Lynden,106.0,-122.4581223,48.95589828,0,0,0,0,0,1
4WA5,Millers Field,Lummi Island,147.0,-122.6976929,48.7233696,,,,,,1
4WA8,Riverside,Deming,175.0,-122.264328,48.83483887,,,,,,1
7WA3,West Wind,Everson,160.0,-122.3286133,48.88611221,,,,,,1
CBQ2,Fort Langley,Fort Langley,30.0,-122.5544128,49.16747284,0,0,0,0,0,1
CYCW,Chilliwack,Chilliwack,30.0,-121.9390564,49.15319443,0,0,0,0,122700,1
CYNJ,Langley,Langley,31.0,-122.6307373,49.10094452,119000,124500,0,0,0,1
CYPK,Pitt Meadows,Pitt Meadows,10.0,-122.7133942,49.21608734,126300,125000,0,0,0,1
CYXX,Abbotsford,Abbotsford,187.0,-122.3600006,49.02527618,119400,119800,0,0,0,1
KBLI,Bellingham Intl,Bellingham,167.0,-122.537529,48.79269409,124900,134450,0,0,122950,1
WA88,Horse Fly,Ferndale,70.0,-122.556839,48.89288712,,,,,,1
WA93,Eliza Island,Bellingham,8.0,-122.5859222,48.65294266,,,,,,1
WN08,Kendall Airstrip,Kendall,548.0,-122.1129303,48.91484451,,,,,,1
WN35,Meadow Mist,Ferndale,55.0,-122.5646133,48.90872192,,,,,,1
WN51,Bayview Farms,Burlington,6.0,-122.4651642,48.52093887,,,,,,1
2WA1,Diamond Point Airstrip,Sequim,262.0,-122.9285049,48.09259033,,,,,,1
61WA,Burden Field-(Rabbit Run),Friday Harbor,50.0,-123.017952,48.47204208,,,,,,1
78WA,Center Island,Center Island,115.0,-122.8321228,48.49010086,,,,,,1
7WA0,Big Andy,Port Angeles,830.0,-123.6429749,48.098423,,,,,,1
KCLM,William R Fairchild Intl,Port Angeles,266.0,-123.4996948,48.12019348,0,0,0,135170,122975,1
KNOW,Port Angeles Cgas,Port Angeles,8.0,-123.4139557,48.14129257,0,0,118325,0,122975,1
S31,Lopez Island,Lopez,186.0,-122.9376678,48.48391724,0,0,0,0,0,1
W28,Sequim Valley,Sequim,143.0,-123.1879196,48.09792328,0,0,0,0,122700,1
WA45,Olympic Field,Discovery Bay/Maynard,500.0,-122.8997192,47.9952774,,,,,,1
WA59,Rake's Glen,Sequim,64.0,-123.1508331,48.12549973,,,,,,1
WN00,Kimshan Ranch,Quilcene,80.0,-122.8596115,47.84009171,,,,,,1
WN07,Decatur Shores,Decatur,38.0,-122.8137741,48.49983215,,,,,,1
WN21,Lawson Airpark,Port Angeles,650.0,-123.3979645,48.08148193,,,,,,1
WN23,Grand View Intl,Sequim,150.0,-123.1796188,48.10175705,,,,,,1
WN29,Blue Ribbon,Sequim,103.0,-123.2055206,48.13024902,,,,,,1
WN49,Harbord Field,Sequim,20.0,-123.0879593,48.12175751,,,,,,1
0S9,Jefferson Co Intl,Port Townsend,108.0,-122.8106384,48.0538063,0,0,0,0,123000,1
13W,Camano I,Stanwood,133.0,-122.4361954,48.25694275,0,0,0,0,0,1
14WA,Livingston Bay,Stanwood,10.0,-122.4477844,48.23929977,,,,,,1
15WA,Sunset,Stanwood,156.0,-122.3616104,48.27738953,,,,,,1
27WA,J C's,Conway,236.0,-122.315712,48.32510376,,,,,,1
74S,Anacortes,Anacortes,237.0,-122.6624985,48.49850082,0,0,0,0,0,1
KOKH,Lupien,Oak Harbor,167.0,-122.6736679,48.25152588,0,0,132775,0,122800,1
76WA,Heineck Farm,Everett,10.0,-122.1337433,48.00509644,,,,,,1
80WA,Sfs Airpark,Hadlock,120.0,-122.7748795,48.03458786,,,,,,1
96WA,Jim & Julie's,Everett,15.0,-122.1555557,47.89805603,,,,,,1
KAWO,Arlington Mun,Arlington,132.0,-122.1590271,48.16075134,0,0,135625,0,0,1
KBVS,Skagit Regl,Burlington/Mt Vernon,106.0,-122.4216919,48.47052383,0,0,121125,0,123075,1
KNRA,Coupeville NOLF,Coupeville,196.0,-122.6319427,48.1883316,,,,,,1
KNUW,Whidbey Island NAS /Ault Field,Oak Harbor,32.0,-122.6559601,48.35183716,127900,134150,0,0,0,1
KPAE,Snohomish County (Paine Fld),Everett,586.0,-122.2820969,47.90731812,120200,128650,0,128650,122950,1
S43,Harvey,Snohomish,19.0,-122.1027451,47.90486526,0,0,0,0,123000,1
WA04,Kyle's Airfield At Lost Lake,Snohomish,470.0,-122.043335,47.8133316,,,,,,1
W10,Whidbey,Langley,271.0,-122.4377289,48.01750946,0,0,0,0,0,1
W16,First Air,Monroe,50.0,-121.9952469,47.87136459,0,0,0,0,0,1
WA07,Barker,Mount Vernon,5.0,-122.338768,48.37482452,0,0,0,0,0,1
WA18,Decatur /Jones/,Decatur Island,125.0,-122.8029556,48.51010132,,,,,,1
WA25,Green Valley Airfield,Granite Falls,312.0,-122.0145111,48.09302902,0,0,0,0,122800,1
WA42,Stacey's,Port Townsend,100.0,-122.77211,47.97203445,,,,,,1
WA56,Israel's Farm,Sedro Woolley,61.0,-122.0915146,48.50788498,,,,,,1
WN18,Becker's Landing,Anacortes,155.0,-122.5393372,48.45677185,,,,,,1
WN40,Coupeville Airpark,Coupeville,200.0,-122.6429443,48.19037628,,,,,,1
WN53,Frontier Airpark,Lake Stevens,478.0,-122.0628357,48.11042404,0,0,0,0,0,1
3W5,Concrete Mun,Concrete,267.0,-121.7582474,48.52983856,0,0,0,0,0,1
W12,Lost River Resort,Mazama,2415.0,-120.5020447,48.64958191,0,0,0,0,0,1
1S2,Darrington Muni,Darrington,548.0,-121.6102066,48.25861359,0,0,0,0,0,1
27W,Lake Wenatchee State,Leavenworth,1931.0,-120.7198944,47.81941223,0,0,0,0,0,1
2S0,Twisp Mun,Twisp,1602.0,-120.0939484,48.35058594,0,0,0,0,0,1
6S9,Stehekin State,Stehekin,1210.0,-120.7208023,48.34577942,0,0,0,0,0,1
S52,Methow Valley State,Winthrop,1706.0,-120.1458893,48.42494583,0,0,118425,0,122800,1
WN26,Schoepflin,Moscow,2607.0,-117.0768738,46.8849678,,,,,,1
6WA2,Gower Field,Olympia,130.0,-122.8212509,47.11148453,,,,,,1
KSHN,Sanderson,Shelton,266.0,-123.1475525,47.23355484,122800,0,0,119275,0,1
00WA,Howell,Longbranch,150.0,-122.7717972,47.17842865,,,,,,1
02WA,Cawleys South Prairie,South Prairie,690.0,-122.0940018,47.15232468,,,,,,1
2S1,Vashon Muni,Vashon,312.0,-122.4769745,47.45858765,0,0,0,0,0,1
4WA9,Port Orchard,Port Orchard,370.0,-122.6679153,47.43231583,,,,,,1
51WA,Evergreen Sky Ranch,Black Diamond,580.0,-122.067894,47.26815414,0,0,0,0,0,1
95WA,Black Diamond,Black Diamond,595.0,-122.0098343,47.31565475,,,,,,1
9WA7,Albritton,Buckley,530.0,-122.1330566,47.2155571,,,,,,1
KBFI,Boeing/King Co Intl,Seattle,19.0,-122.3019409,47.52997208,118300,127750,0,0,122950,1
KPWT,Bremerton Natl,Bremerton,443.0,-122.7648087,47.49024963,0,0,121200,0,123050,1
KRNT,Renton Mun,Renton,27.0,-122.2157516,47.49313736,124700,126950,0,126950,122950,1
KTCM,Mcchord Field (Joint Base Lewi,Tacoma,301.0,-122.4764786,47.13767624,124800,135825,0,0,0,1
KTIW,Tacoma Narrows,Tacoma,293.0,-122.5781097,47.26794434,118500,124050,0,124050,122950,1
S36,Grier,Kent,472.0,-122.1035385,47.33709717,0,0,0,0,123000,1
S50,Auburn Mun,Auburn,59.0,-122.2266541,47.32762527,0,0,0,0,122800,1
8W5,Apex Airpark,Silverdale,510.0,-122.733139,47.65641403,,,,,,1
WA17,Majerle Strip,Duvall,40.0,-121.9821625,47.75547791,,,,,,1
WA61,Thompson Airport,Kingston,50.0,-122.5297241,47.79833221,,,,,,1
WA69,Wax Orchards,Vashon,301.0,-122.4993515,47.40125656,,,,,,1
WA77,Enumclaw,Enumclaw,738.0,-122.0220566,47.19565964,,,,,,1
WA84,Auburn Academy,Auburn,416.0,-122.149559,47.28065491,,,,,,1
WA96,Leisureland Airpark,Bremerton,430.0,-122.7738953,47.60798645,0,0,0,0,0,1
WN13,Vaughan Ranch Airfield,Port Orchard,240.0,-122.5690231,47.46370697,,,,,,1
WN42,Flying H Ranch,Buckley,587.0,-122.1199722,47.18385315,,,,,,1
WN76,Bergseth Field,Enumclaw,1100.0,-121.9245529,47.24357605,,,,,,1
WN87,Bryan,Enumclaw,630.0,-122.0926132,47.20857239,,,,,,1
WN15,Burnett Landing,Wilkeson,800.0,-122.0559692,47.12968063,,,,,,1
WT77,Rocky Bay Airport,Key Center,80.0,-122.7902756,47.35522079,,,,,,1
0WA1,Dwight Field,Chehalis,350.0,-122.8262329,46.61705017,,,,,,1
0WA2,Curtis,Curtis,254.0,-123.1045761,46.59038162,,,,,,1
1WA2,Pilot's Pastures,Winlock,450.0,-122.8900833,46.51924896,,,,,,1
20WA,Skatter Creek,Rochester,174.0,-123.0369339,46.8286705,,,,,,1
44T,Hoskins,Olympia,207.0,-122.8278351,46.99238968,0,0,0,0,0,1
4W8,Elma Mun,Elma,32.0,-123.4296799,46.99052811,0,0,0,0,122800,1
4WA2,Cricket Field,Little Rock,184.0,-122.9684753,46.92718124,,,,,,1
65WA,Wissler's,Tenino,255.0,-122.9162445,46.84037781,,,,,,1
84WA,D And B Airpark,Elma,55.0,-123.3843231,46.97287369,,,,,,1
8W9,R & K Skyranch,Rochester,149.0,-123.091423,46.83268356,0,0,0,0,123000,1
KCLS,Chehalis-Centralia,Chehalis,173.0,-122.9827499,46.67702866,0,0,118025,0,122800,1
KOLM,Olympia Rgnl,Olympia,199.0,-122.9025421,46.96940613,124400,135725,0,135725,122950,1
WA16,Banas Field,Brooklyn,180.0,-123.5411072,46.79972076,,,,,,1
WA95,Skyqueen,Centralia,530.0,-122.9111099,46.71861267,,,,,,1
WN47,Bear Valley Skyranch,Mccleary,344.0,-123.2702789,47.08166504,,,,,,1
WN48,Kimbrel Farm,Oakville,139.0,-123.3104248,46.79037857,,,,,,1
WN65,My,Elma,80.0,-123.4768295,46.97259521,,,,,,1
KPLU,Pierce Co-Thun,Puyallup,536.0,-122.2872009,47.10391998,0,0,128575,0,122700,1
2W3,Swanson,Eatonville,842.0,-122.257225,46.87166595,0,0,0,0,0,1
39P,Strom,Morton,941.0,-122.2666245,46.55036163,0,0,0,0,0,1
3B8,Shady Acres,Spanaway,445.0,-122.3710861,47.07038879,0,0,0,0,0,1
3WA0,Taylor,Rainier,470.0,-122.6695709,46.89759827,,,,,,1
3WA9,Flying Carpet,Lacey,206.0,-122.8028107,46.96539307,,,,,,1
49WA,Cougar Mountain Airfield,Yelm,470.0,-122.5220642,46.8470459,,,,,,1
86WA,Kapowsin Field,Kapowsin,720.0,-122.235672,47.00399017,,,,,,1
8WA0,Flying B,Rainier,445.0,-122.6012344,46.87760162,,,,,,1
06WN,Western,Yelm,390.0,-122.5530396,46.92498779,0,0,0,0,0,1
KGRF,Gray AAF,Ft Lewis,294.0,-122.5807648,47.07921219,119325,124650,0,0,0,1
KTDO,Toledo-Winlock Carlson Meml,Toledo,365.0,-122.8064804,46.47716522,0,0,0,0,0,1
KZ10,Pacemaker Landing Zone,Pacemaker Landing Zone,398.0,-122.4460754,47.02166367,,,,,,1
S44,Spanaway,Spanaway,380.0,-122.4314041,47.08691788,0,0,0,0,0,1
WN05,Harris,Toledo,385.0,-122.7920609,46.51483154,,,,,,1
WN34,Ethel Intl,Ethel,573.0,-122.6861191,46.53023911,,,,,,1
WN55,Randle-Kiona Airpark,Randle,934.0,-122.0062027,46.51150131,,,,,,1
WN59,Kadwell Field,Onalaska,520.0,-122.7178955,46.5376091,,,,,,1
WN74,Burnt Ridge Airstrip,Onalaska,1070.0,-122.6262283,46.58538437,,,,,,1
1WA6,Fall City,Fall City,140.0,-121.8637238,47.55954361,,,,,,1
4W0,Bandera State,Bandera,1636.0,-121.5364685,47.39537048,0,0,0,0,0,1
KESW,Easton State,Easton,2218.0,-121.1855316,47.25418472,0,0,0,0,0,1
S88,Skykomish State,Skykomish,1002.0,-121.3390579,47.7109375,0,0,0,0,0,1
2S5,Waterville,Waterville,2645.0,-120.0564651,47.65600586,0,0,0,0,0,1
2W1,De Vere,Cle Elum,1800.0,-120.8526611,47.17758179,0,0,0,0,0,1
3WA1,Johnson's Landing,Leavenworth,1260.0,-120.6700897,47.60361099,,,,,,1
5WA5,Ross Private Strip,Orondo,920.0,-120.1516724,47.76314545,,,,,,1
8S2,Cashmere-Dryden,Cashmere,846.0,-120.4846649,47.51475143,0,0,0,0,0,1
KEAT,Pangborn Memorial,Wenatchee,1224.0,-120.2068329,47.39880371,0,0,0,119925,123000,1
S93,Cle Elum Mun,Cle Elum,1941.0,-120.8840332,47.19424057,0,0,0,0,0,1
WA47,Flying Rock Airpark,Ellensburg,2634.0,-120.6336823,47.15138245,,,,,,1
WN17,Hoverhawk Ranch,Wenatchee,2450.0,-120.3164597,47.33985138,,,,,,1
KLEN,Leavenworth Airport,Leavenworth,2169.0,-120.7959824,47.76542664,,,,,,1
KLEO,Leavenworth Airport,Leavenworth,1895.0,-120.6641312,47.77634811,,,,,,1
21W,Ranger Creek,Greenwater,2570.0,-121.5336685,47.01313782,0,0,0,0,0,1
4S6,Tieton State,Rimrock,2964.0,-121.1239777,46.63755417,0,0,0,0,0,1
55S,Packwood,Packwood,1053.0,-121.6779022,46.60416031,0,0,0,0,0,1
48WA,West Valley,Yakima,1900.0,-120.7766647,46.5625,,,,,,1
55WA,Wilkinson Ranch,Yakima,1670.0,-120.7613907,46.5280571,,,,,,1
KELN,Bowers,Ellensburg,1755.0,-120.528862,47.03484344,0,0,0,118375,123000,1
KYKM,Yakima Air Terminal/Mcallister,Yakima,1069.0,-120.5440521,46.56816483,133250,125250,0,0,122950,1
WA26,Harrah,Harrah,845.0,-120.6345139,46.40818024,,,,,,1
WA97,Buena,Buena,830.0,-120.340889,46.4431839,,,,,,1
WN64,J K D Farms,Ellensburg,1575.0,-120.4620132,46.97429276,,,,,,1
0WN1,Shangri-La,Gleed,1500.0,-120.6016693,46.75194931,,,,,,1
WN45,Take Five,Selah,1543.0,-120.4442291,46.78068161,,,,,,1
05S,Vernonia Muni,Vernonia,648.0,-123.2428665,45.85210419,0,0,0,0,0,1
10OR,Stevens Mountain,Vernonia,914.0,-123.2216721,45.7788353,,,,,,1
18JY,Skamokawa East Valley,Skamokawa,19.0,-123.4427795,46.28472137,,,,,,1
30OR,Bero Field,Vernonia,700.0,-123.2801132,45.8026123,,,,,,1
52OR,Chinook Ultralight Airpark,Scappoose,13.0,-122.8462524,45.74530029,,,,,,1
6OR8,Holce & Oblack,Birkenfield,500.0,-123.3526535,45.97042847,,,,,,1
8OR6,Grabhorn's,Scappoose,255.0,-122.8939972,45.78233719,,,,,,1
KKLS,Southwest Washington Rgnl,Kelso,18.0,-122.8983612,46.11650085,0,0,135075,0,122800,1
KSPB,Scappoose Industrial Airpark,Scappoose,54.0,-122.8618317,45.77102661,122800,0,0,135875,0,1
OR23,Karpens,Astoria,125.0,-123.6402817,46.1613884,,,,,,1
WT44,Michair,Cathlamet,13.0,-123.3850021,46.17733383,,,,,,1
19WA,Key Way,Stevenson,972.0,-121.8861923,45.71956253,,,,,,1
5WA9,Brush Prairie Aerodrome,Brush Prairie,290.0,-122.5444412,45.7238884,,,,,,1
W27,Woodland State,Woodland,29.0,-122.7372742,45.89881897,0,0,0,0,0,1
W52,Goheen,Battle Ground,292.0,-122.5768585,45.82679749,0,0,0,0,0,1
W58,Cedars North,Battle Ground,275.0,-122.5150833,45.76455688,0,0,0,0,0,1
WA29,La Center View-Air,La Center,811.0,-122.5942688,45.89566803,,,,,,1
WA46,Daybreak,La Center,25.0,-122.6374969,45.83027649,,,,,,1
WA80,Mcclellan Field,Amboy,840.0,-122.5481567,45.89427948,,,,,,1
WA87,Parkside Airpark,Battle Ground,275.0,-122.5528793,45.81594849,,,,,,1
WN10,Mount St Helen's Aero Ranch,Cougar,450.0,-122.3795395,45.99344254,,,,,,1
06OR,Hayden Mountain,Forest Grove,846.0,-123.0797806,45.46462631,,,,,,1
17S,Chehalem,Newberg,190.0,-123.0542679,45.32372665,0,0,0,0,0,1
1OR3,Sunset Air Strip,North Plains,207.0,-123.009552,45.59150314,,,,,,1
1OR4,North Plains,North Plains,210.0,-123.024826,45.60400391,,,,,,1
29OR,Smith Pvt,Brooks,180.0,-122.9502792,45.02944565,,,,,,1
2S6,Sportsman Airpark,Newberg,171.0,-122.9553757,45.29567337,0,0,0,0,0,1
4S4,Skyport,Cornelius,174.0,-123.052887,45.5826149,0,0,0,0,0,1
5OR2,Bushnell,Sheridan,213.0,-123.4238434,45.10349274,,,,,,1
64OR,Plum Valley,Amity,230.0,-123.1723251,45.03372955,,,,,,1
67OR,Mcgee,Donald,175.0,-122.8564835,45.23373032,,,,,,1
69OR,Dick Fisher,Gaston,300.0,-123.1367722,45.41261292,,,,,,1
70OR,Goodin Creek,Gaston,245.0,-123.1489944,45.40955734,,,,,,1
73OR,Ribbon Ridge,Newberg,490.0,-123.0651093,45.37039566,,,,,,1
74OR,Stan Jost,Newberg,180.0,-123.0189896,45.32372665,,,,,,1
7S3,Stark's Twin Oaks,Hillsboro,170.0,-122.9421616,45.42845154,0,0,0,0,123050,1
91OR,Abba's,Sheridan,207.0,-123.4214172,45.1016655,,,,,,1
98OR,Mach-O Acres,Sheridan,435.0,-123.3701096,45.19900131,,,,,,1
KHIO,Portland-Hillsboro,Portland,203.0,-122.9507217,45.54212189,119300,127650,0,127650,122950,1
KMMV,Mc Minnville Muni,Mcminnville,161.0,-123.136055,45.19455719,0,0,0,135675,123000,1
OG23,Poverty Hollow,Sheridan,330.0,-123.3914948,45.15705872,,,,,,1
OG26,Roscoes,Willamina,230.0,-123.4804001,45.06495285,,,,,,1
OG34,Meyer Riverside Airpark,Tigard,252.0,-122.8289871,45.39984131,,,,,,1
OG44,Watts Landing,Amity,155.0,-123.2372513,45.15338898,,,,,,1
OR00,Flying K Ranch,Beaverton,350.0,-122.8799973,45.43452835,,,,,,1
OR05,Flying M,Yamhill,448.0,-123.353302,45.36152649,,,,,,1
OR28,Pats Pasture,Beaverton,250.0,-122.8928757,45.44150543,,,,,,1
OR38,Harchenko Industrial,Brooks,183.0,-122.9258881,45.07937622,,,,,,1
OR59,Trivelpiece,Yamhill,165.0,-123.2070465,45.33150482,,,,,,1
OR61,Apple Valley,Buxton,247.0,-123.1862183,45.67844391,0,0,0,0,0,1
OR81,Olinger Strip,Hillsboro,185.0,-123.0211258,45.55331039,,,,,,1
OR90,Lafayette Airstrip,Lafayette,160.0,-123.1289978,45.24428177,,,,,,1
OR95,Vineyard,Mccoy,190.0,-123.2345505,45.04983902,,,,,,1
18OR,Red's Field,Amity,190.0,-123.1823502,45.09186554,,,,,,1
2OG5,Mendenhall Airstrip,Willamina,350.0,-123.5064621,45.11797714,,,,,,1
67OG,George,Sheridan,440.0,-123.4061127,45.03138733,,,,,,1
KKEI,Keizer Airport,Keizer,119.0,-123.0053558,45.06812668,,,,,,1
KYAM,Yamhill Airport,Yamhill,218.0,-123.3028107,45.29351425,,,,,,1
03S,Sandy River,Sandy,698.0,-122.2286911,45.40161133,0,0,0,0,122800,1
1OR7,Skyhill,Oregon City,735.0,-122.4561081,45.28789902,,,,,,1
1W1,Grove Field,Camas,419.0,-122.4043121,45.62783051,0,0,0,0,0,1
26OR,Cub Port,Happy Valley,789.0,-122.5005875,45.4464798,,,,,,1
28OR,Parrett Mountain,Newberg,790.0,-122.2342529,45.47900772,,,,,,1
2OR0,Nielsen,Oregon City,510.0,-122.517868,45.34428787,,,,,,1
42OR,Big Sky Ranch,Carver,380.0,-122.4633331,45.37255096,,,,,,1
44OR,Compton,Canby,160.0,-122.7267609,45.22234344,,,,,,1
4OR6,Auberge Des Fleurs,Sandy,510.0,-122.2542572,45.44984055,,,,,,1
4S9,Portland-Mulino,Portland,254.0,-122.5901947,45.21655655,0,0,0,0,123050,1
4WA1,Brown's Cape Horn,Skamania,920.0,-122.1969452,45.60833359,,,,,,1
5S9,Valley View,Estacada,735.0,-122.3186951,45.30817795,0,0,0,0,0,1
6OR7,Schmidt,Boring,650.0,-122.3211136,45.45289612,,,,,,1
7OR9,Bonney Acres,Oregon City,640.0,-122.4720306,45.32428741,,,,,,1
7S9,Lenhardt,Hubbard,165.0,-122.7434235,45.18039703,0,0,0,0,0,1
KCZK,Cascade Locks State,Cascade Locks,151.0,-121.8886108,45.66638947,122900,0,0,0,0,1
KPDX,Portland Intl,Portland,26.0,-122.5968704,45.58870697,118700,128350,0,0,122950,1
KTTD,Portland-Troutdale,Portland,33.0,-122.4012527,45.54936218,120900,0,0,0,122950,1
KUAO,Aurora State,Aurora,198.0,-122.7700577,45.24713898,0,118525,0,0,122700,1
KVUO,Pearson Field,Vancouver,25.0,-122.6564865,45.62045288,0,0,0,135125,0,1
OG20,Fairways,Oregon City,525.0,-122.5512009,45.32067871,,,,,,1
OG29,Mckinnon Airpark,Sandy,658.0,-122.2420349,45.43067551,,,,,,1
OG30,Aeroacres,Oregon City,420.0,-122.6053696,45.31650925,,,,,,1
OL05,Skydive Oregon,Molalla,360.0,-122.6175919,45.1462326,,,,,,1
OR40,Dietz Airpark,Canby,180.0,-122.6509247,45.25567627,,,,,,1
OR41,Workman Airpark,Canby,210.0,-122.6692581,45.20762253,,,,,,1
OR50,Lehman Field,Corbett,1003.0,-122.2339783,45.48567581,,,,,,1
OR65,Eagle Nest Ranch,Estacada,425.0,-122.3459167,45.35484314,,,,,,1
OR66,Beaver Oaks,Estacada,400.0,-122.3609161,45.3040123,,,,,,1
OR67,Mcgill,Estacada,370.0,-122.3983078,45.33670425,,,,,,1
OR72,Krueger,Boring,620.0,-122.323143,45.44206238,,,,,,1
S48,Country Squire,Sandy,1175.0,-122.2680588,45.35444641,0,0,0,0,0,1
W56,Fly For Fun,Vancouver,297.0,-122.5218506,45.68727875,0,0,0,0,122900,1
WA67,Green Mountain,Vancouver,270.0,-122.4725037,45.66305542,,,,,,1
WA78,Sky River Ranch,Washougal,1239.0,-122.1845322,45.62789536,,,,,,1
KSIL,Silverton Airport,Silverton,209.0,-122.8046341,45.01904678,,,,,,1
36WA,Bob's Field,Trout Lake,1650.0,-121.4977798,45.95639038,,,,,,1
5WA7,Warwick,Centerville,1620.0,-120.9845123,45.71651077,,,,,,1
66WA,Trout Lake,Trout Lake,1914.0,-121.5234146,46.00234222,,,,,,1
75WA,Port Elsner,White Salmon,610.0,-121.4795227,45.80206299,,,,,,1
9WA4,Piper Canyon,Goldendale,1610.0,-120.9524689,45.81041718,,,,,,1
WA66,Spring Creek Ranch,White Salmon,475.0,-121.5011826,45.80539703,,,,,,1
1S8,Arlington Muni,Arlington,886.0,-120.1769714,45.72255707,0,0,0,0,0,1
2WN9,Hillcrest,Goldendale,2405.0,-120.7008972,45.84512329,,,,,,1
68WA,Mcmahon Field,Zillah,850.0,-120.2217178,46.39374161,,,,,,1
S20,Goldendale,Goldendale,1678.0,-120.8452759,45.83207321,0,0,0,0,0,1
03WN,Aerostone Ranch,,2328.0,-120.6723251,45.87545395,,,,,,1
KAHT,Ahtanum Airport,Ahtanum,1014.0,-120.7481842,46.37714005,,,,,,1
KWAP,Wapato Airport,Wapato,805.0,-120.5600739,46.3792038,,,,,,1
02OR,Rowena Dell,The Dalles,797.0,-121.3191833,45.68171692,,,,,,1
0OR9,Hanel Field,Mount Hood,1626.0,-121.5486832,45.59261703,,,,,,1
19OR,Nelson Ranch,Maupin,2000.0,-121.223671,45.10956192,,,,,,1
32OR,Pine Hollow,Wamic,1820.0,-121.2936783,45.25484085,,,,,,1
4S2,Ken Jernstedt Airfield,Hood River,614.0,-121.5338669,45.67277908,0,0,134375,0,122800,1
68OR,Lyda Ranch Airstrip,Dufur,2407.0,-121.2737732,45.3923378,,,,,,1
6OR2,Chenoweth Airpark,The Dalles,609.0,-121.2790909,45.6106987,,,,,,1
7OR6,Green Acres Air Park,Hood River,800.0,-121.5911865,45.6367836,,,,,,1
KDLS,Columbia Gorge Rgnl/The Dalles,The Dalles,226.0,-121.1682739,45.61935425,0,0,0,135175,123000,1
OR53,Wapinitia,Wapinitia,1910.0,-121.2289505,45.14567184,,,,,,1
OR60,Fargher,Dufur,1432.0,-121.166626,45.43627548,,,,,,1
1OR5,Reed,Olex,1550.0,-120.2196884,45.4887352,,,,,,1
35S,Wasco State,Wasco,1477.0,-120.6739883,45.5892067,,,,,,1
3S9,Condon State Pauling Fld,Condon,2906.0,-120.1664505,45.24656677,0,0,0,0,0,1
9OR1,Shaniko Ranch,Shaniko,3300.0,-120.739769,45.00290298,,,,,,1
OL04,Decker Ranch,Kent,2610.0,-120.6594925,45.16480255,,,,,,1
OR46,Ajax,Condon,2165.0,-120.4678268,45.38318253,,,,,,1
OR48,Snyder Ranch,Condon,2655.0,-120.21698,45.19429779,,,,,,1
OR87,Compressor Station Nr 10 Stolport,Kent,2677.0,-120.6128159,45.12980652,,,,,,1
5OR3,Siletz,Siletz,100.0,-123.9151154,44.73039627,,,,,,1
5S4,Toledo State,Toledo,11.0,-123.9396133,44.60102844,0,0,0,0,0,1
KONP,Newport Muni,Newport,149.0,-124.0579147,44.58036041,0,0,133900,0,122800,1
R33,Wakonda Beach State,Waldport,41.0,-124.0851212,44.38456345,0,0,0,0,0,1
S45,Siletz Bay State,Gleneden Beach,64.0,-124.0285568,44.87677765,0,0,0,0,122700,1
6S2,Florence Mun,Florence,45.0,-124.1113663,43.9828186,0,0,118225,0,122800,1
1OR0,Sunnyhill,North Bend,320.0,-124.2028885,43.48316956,,,,,,1
45OR,Benham,Coquille,280.0,-124.1706619,43.15483475,,,,,,1
9S3,Lakeside State,Lakeside,20.0,-124.1803894,43.58316803,0,0,0,0,0,1
KOTH,Southwest Oregon Rgnl,North Bend,15.0,-124.2470245,43.4169426,118450,0,135075,0,0,1
OR42,Norway,Norway,23.0,-124.1602173,43.10180283,,,,,,1
S05,Bandon State,Bandon,113.0,-124.4078598,43.08647156,0,0,0,0,122800,1
4S1,Gold Beach Muni,Gold Beach,20.0,-124.4249191,42.4153595,0,0,0,0,122800,1
5S6,Cape Blanco State,Denmark,201.0,-124.517807,42.85802841,0,0,0,0,0,1
6S6,Powers,Powers,326.0,-124.0590286,42.86936188,0,0,0,0,0,1
OR74,Winkle Bar,Grants Pass,450.0,-123.8050842,42.70149994,,,,,,1
0O9,Ward,Gasquet,356.0,-123.9847794,41.84558487,0,0,0,0,0,1
KBOK,Brookings State,Brookings,449.0,-124.2897797,42.07394409,0,0,132025,0,122800,1
KCEC,Jack Mc Namara Field,Crescent City,55.0,-124.2365265,41.78016663,0,0,0,119925,122800,1
S51,Mcbeth,Klamath Glen,36.0,-123.9956665,41.51202774,0,0,0,0,0,1
KACV,California Redwood Coast-Humboldt County Airport,Arcata-Eureka,200.0,-124.1084747,40.97783279,0,0,0,118520,123000,1
KEKA,Murray Field,Eureka,8.0,-124.112793,40.8033905,0,0,0,0,122700,1
KFOT,Rohnerville,Fortuna,366.0,-124.1326675,40.55394363,0,0,133800,0,0,1
O16,Garberville,Garberville,543.0,-123.8141479,40.08543396,0,0,0,0,0,1
O19,Kneeland,Eureka,2739.0,-123.9272156,40.71895218,0,0,0,0,0,1
O33,Eureka Mun,Eureka,14.0,-124.2122803,40.7808609,0,0,0,0,0,1
0Q5,Shelter Cove,Shelter Cove,64.0,-124.0743027,40.02816772,0,0,0,0,0,1
82CL,Fort Bragg,Fort Bragg,71.0,-123.7955704,39.47433472,,,,,,1
KLLR,Little River,Little River,561.0,-123.7537766,39.26205444,0,0,121125,0,122700,1
0OR7,Marr Field,Monmouth,275.0,-123.26371,44.85400772,,,,,,1
2OR3,Davidson Field,Jefferson,188.0,-123.0975952,44.79456329,,,,,,1
3OR1,Cubehole,Brownsville,355.0,-122.9591141,44.36485672,,,,,,1
4OR3,Lambert Field,Albany,195.0,-123.0759277,44.73040009,,,,,,1
4OR4,Schrock,Corvallis,245.0,-123.2383347,44.44361115,,,,,,1
4OR5,Fly 'n' W,Salem,206.0,-122.9414825,44.96789551,,,,,,1
4OR7,Landsem Air Field,Salem,205.0,-122.9462051,44.98539734,,,,,,1
55OR,Muddy Creek,Corvallis,253.0,-123.3084335,44.43595505,,,,,,1
5OR8,Hatch,Stayton,380.0,-122.85009,44.7731781,,,,,,1
7S5,Independence State,Independence,178.0,-123.1982422,44.86715317,0,0,0,0,122800,1
88OR,Tallman,Lebanon,303.0,-122.9713898,44.56833267,,,,,,1
8OR7,Joyner,Corvallis,220.0,-123.2245407,44.62706757,,,,,,1
9OR0,Lafferty Field,Brownsville,360.0,-123.0248108,44.31512451,,,,,,1
9OR8,Wooldridge Agstrip,Albany,205.0,-123.0556488,44.73262405,,,,,,1
KCVO,Corvallis Muni,Corvallis,247.0,-123.2894592,44.49687576,0,0,135775,0,123075,1
KSLE,Mcnary Fld,Salem,204.0,-123.0025024,44.90952682,119100,124550,0,124550,122950,1
OG10,Mt Hope,Lebanon,400.0,-122.8261108,44.55722046,,,,,,1
OG16,Jim's Airstrip,Halsey,275.0,-123.21315,44.38262177,,,,,,1
OR19,Propst,Albany,237.0,-123.0228195,44.63897705,,,,,,1
OR21,Miller Airstrip,Albany,279.0,-122.9895325,44.5931778,,,,,,1
OR22,Roppair,Albany,247.0,-123.0317612,44.6192894,,,,,,1
OR25,Flying E,Aumsville,325.0,-122.9011993,44.84484482,,,,,,1
OR39,Flying Tom,Corvallis,300.0,-123.2120438,44.65762329,,,,,,1
OR52,Venell,Corvallis,246.0,-123.302597,44.47345734,,,,,,1
OR54,Winn,Corvallis,205.0,-123.2067642,44.59845734,,,,,,1
OR56,Holiday,Corvallis,225.0,-123.170372,44.5699501,,,,,,1
OR77,Fitts,Independence,175.0,-123.1562119,44.80039597,,,,,,1
OR86,Gilmour Ag Air,Jefferson,244.0,-123.0470428,44.75540161,,,,,,1
OR94,Showa,Brownsville,298.0,-123.0295334,44.39166641,,,,,,1
S12,Albany Mun,Albany,226.0,-123.0594482,44.63781738,0,0,0,0,122800,1
S30,Lebanon State,Lebanon,347.0,-122.9297256,44.53113937,0,0,0,0,122800,1
21OG,Ames,Jefferson,720.0,-122.9694443,44.77180481,,,,,,1
22OR,Iron Crown,Silverton,790.0,-122.7625885,44.94178772,,,,,,1
2OR7,Sweet Home,Sweet Home,627.0,-122.6857834,44.39957809,,,,,,1
5OR9,Lone Oaks Ranch,Stayton,630.0,-122.7600861,44.77679062,,,,,,1
6S4,Davis,Gates,1028.0,-122.4213867,44.74588776,0,0,0,0,0,1
8OR2,Kingston Airpark,Stayton,871.0,-122.7300873,44.77845383,,,,,,1
8S3,Santiam Junction State,Santiam Junction,3780.0,-121.942276,44.43455505,0,0,0,0,0,1
OG28,The Green Trees Ranch,Scio,1139.0,-122.7828674,44.68317795,,,,,,1
OR51,Gillette Field,Scio,735.0,-122.6995316,44.71956635,,,,,,1
33OR,Crow-Mag,Elmira,450.0,-123.3914871,44.06373215,,,,,,1
36OR,Jasper Ridge Airstrip,Springfield/Jasper,1125.0,-122.8799973,44.00333405,,,,,,1
61S,Cottage Grove State,Cottage Grove,639.0,-123.0321198,43.80406952,0,0,0,0,122800,1
77S,Hobby,Creswell,538.0,-123.0066681,43.9307518,0,0,0,0,122800,1
KEUG,Mahlon Sweet Field,Eugene,366.0,-123.2119751,44.1245842,118900,125225,0,0,122950,1
OG36,Munson,Junction City,302.0,-123.2281494,44.25040054,,,,,,1
OR47,Strauch Field,Junction City,335.0,-123.1894455,44.1883316,,,,,,1
OR57,Walker,Creswell,580.0,-123.0339661,43.86873627,,,,,,1
OR78,Daniels Field,Harrisburg,320.0,-123.0619431,44.27055359,,,,,,1
00S,Mc Kenzie Bridge State,Mckenzie Bridge,1621.0,-122.085556,44.1815567,0,0,0,0,0,1
13OR,Aubrey Mountain Airstrip,Oakridge,1680.0,-122.4264374,43.74067688,,,,,,1
5S0,Oakridge State,Oakridge,1380.0,-122.5045242,43.75255585,0,0,0,0,0,1
5S5,Lake Billy Chinook State,Culver,2695.0,-121.3206024,44.51928711,0,0,0,0,0,1
61OR,The Citadel,Sisters,3077.0,-121.3553162,44.33483887,,,,,,1
6K5,Sisters Eagle Air,Sisters,3168.0,-121.5391006,44.30445862,0,0,0,0,0,1
72OR,Ochs Private,Madras,1790.0,-120.9585037,44.78903961,,,,,,1
OG00,3 Rivers Recreation Area,Culver,2695.0,-121.4014359,44.55789566,,,,,,1
OG19,Bombay Farms,Madras,2385.0,-121.2383804,44.65011597,,,,,,1
OR34,Whippet Field,Sisters,3040.0,-121.4333725,44.3223381,,,,,,1
S33,City-Co,Madras,2427.0,-121.1551514,44.6701622,0,0,0,0,122800,1
04OR,Collins Landing Strip,Mitchell,1500.0,-120.2011261,44.74985504,,,,,,1
2OR1,Big Muddy Ranch,Antelope,1641.0,-120.4950256,44.82849884,,,,,,1
OR89,Kinzua,Kinzua,3966.0,-120.0525208,44.99985504,,,,,,1
KFOS,Fossil Airport,Fossil,2927.0,-120.1711578,44.58365631,,,,,,1
OG51,Six Springs Ranch,Prineville,3780.0,-120.915863,44.48345947,,,,,,1
OG54,Shaniko Cattle,Madras,3300.0,-120.8846588,44.96009827,,,,,,1
35OR,Freight Wagon Field,Redmond,3198.0,-121.175354,44.18955994,,,,,,1
3OR8,Cline Falls Air Park,Redmond,2920.0,-121.2692032,44.28317642,,,,,,1
50OR,Goering Ranches,Alfalfa,3450.0,-120.9472427,44.09734344,,,,,,1
5OR5,Juniper Air Park,Bend,3490.0,-121.1183548,44.03456497,,,,,,1
8OR5,Pilot Butte,Bend,3675.0,-121.275589,44.04734039,,,,,,1
KRDM,Roberts Field,Redmond,3064.0,-121.149971,44.25407028,124500,119025,0,119025,122950,1
OG05,Sundance Meadows,Bend,3850.0,-121.2061081,43.99000168,,,,,,1
OG15,Sage Ranch,Sisters,3170.0,-121.3911362,44.23316574,,,,,,1
OR04,Kennel Airstrip,Bend,3595.0,-121.1647491,44.02956009,,,,,,1
OR29,Gopher Gulch,Bend,3480.0,-121.33461,44.11236191,,,,,,1
OR30,D M Stevenson Ranch,Bend,3800.0,-121.2719727,44.00317383,,,,,,1
KBDN,Bend Mun,Bend,3431.0,-121.2002258,44.09456253,0,0,134425,0,123000,1
S21,Sunriver,Sunriver,4161.0,-121.4530563,43.87631226,0,0,0,0,122800,1
KLAI,La Pine Airport,La Pine,4265.0,-121.593277,43.67438507,,,,,,1
KTHH,Three Rivers Airport,Three Rivers,4250.0,-121.5709381,43.8030777,,,,,,1
6OR4,Tailwheel,Prineville,3130.0,-120.7947388,44.27318192,,,,,,1
OG12,Wilson Ranch,Prineville,4181.0,-120.5238647,44.21259689,,,,,,1
OG21,Dry Creek Airpark,Prineville,3625.0,-120.823082,44.19513702,,,,,,1
S39,Prineville,Prineville,3243.0,-120.9051666,44.28777695,0,0,0,0,122800,1
KPRE,Prineville Airport,Prineville,4606.0,-120.6122437,43.81879425,,,,,,1
11OR,Holiday Sky Ranch,Sutherlin,587.0,-123.2803802,43.42580795,,,,,,1
16S,Myrtle Creek Mun,Myrtle Creek,617.0,-123.3153458,42.99726105,0,0,0,0,122700,1
17OR,Glide Aero,Glide,980.0,-123.1102753,43.26416779,,,,,,1
2OR4,Heavens Gate Ranch,Oakland,965.0,-123.3456345,43.47483826,,,,,,1
48OR,Lookingglass,Roseburg,600.0,-123.5017471,43.15927887,,,,,,1
58OR,Umpqua,Roseburg,700.0,-123.1269455,43.3097229,,,,,,1
5S1,Felt,Roseburg,423.0,-123.4043884,43.21544266,0,0,0,0,0,1
60OR,Whitaker,Oakland,625.0,-123.2798004,43.42650986,,,,,,1
8OR3,Riverview Ranch,Days Creek,840.0,-123.1214447,42.93373108,,,,,,1
94OR,Farm Yard Field,Elkton,230.0,-123.5489807,43.53067398,,,,,,1
95OR,Flournoy Valley,Roseburg,790.0,-123.5325775,43.2076149,,,,,,1
98TE,Hilltop,Glide,1320.0,-123.176651,43.32209015,,,,,,1
KRBG,Roseburg Regl,Roseburg,519.0,-123.3558502,43.23933411,0,0,0,135475,122800,1
OG40,Napier Ranch,Roseburg,485.0,-123.4930496,43.23733521,,,,,,1
3S6,Toketee State,Clearwater,3294.0,-122.4211655,43.22344589,0,0,0,0,0,1
5S2,Crescent Lake State,Crescent Lake,4795.0,-121.9502563,43.53278732,0,0,0,0,0,1
0OR8,Sutton On Rogue,White City,1260.0,-122.8661499,42.48484802,,,,,,1
3S8,Grants Pass,Grants Pass,1114.0,-123.3879852,42.51012039,0,0,0,0,122800,1
4OR0,Springbrook,Rogue River,1560.0,-123.2044983,42.55511856,,,,,,1
5OR0,Backachers Ranch,Selma,1460.0,-123.5331192,42.28511429,,,,,,1
KMFR,Rogue Valley Intl - Medford,Medford,1314.0,-122.873291,42.37496567,119400,127250,0,127250,122950,1
OG13,Fly By Night,Ruch,1640.0,-123.0707169,42.24666214,,,,,,1
OG31,Shady Cove Airpark,Shady Cove,1515.0,-122.8297119,42.6087265,,,,,,1
OG41,Nace Family Airstrip,Glendale,1550.0,-123.3145065,42.77122879,,,,,,1
OR06,Snider Creek,Medford,1430.0,-122.9229507,42.53901291,,,,,,1
OR73,Calvert Peak,Glendale,3797.0,-123.7346115,42.77871323,,,,,,1
OR96,Beagle Sky Ranch,Medford,1436.0,-122.9039307,42.53901291,,,,,,1
OR97,Burrill,Medford,1300.0,-122.8665771,42.43870163,,,,,,1
2S7,Chiloquin State,Chiloquin,4204.0,-121.8790131,42.579319,0,0,0,0,0,1
64S,Prospect State,Prospect,2553.0,-122.4889755,42.74258423,0,0,0,0,122800,1
89OR,Mucky Flat,Eagle Point,2000.0,-122.7125397,42.59790421,,,,,,1
S03,Ashland Mun-Parker,Ashland,1868.0,-122.6606369,42.1902771,0,0,0,0,122800,1
26OG,Oakridge Ranch,Eagle Point,1560.0,-122.7339706,42.46321106,,,,,,1
1JY2,Mahogany Mtn.,Silver Lake,4620.0,-121.0530472,43.06708145,,,,,,1
2S2,Beaver Marsh State,Beaver Marsh,4629.0,-121.8087234,43.12752914,0,0,0,0,0,1
45S,Silver Lake F S Strip,Silver Lake,4492.0,-121.0941696,43.11097336,0,0,0,0,0,1
62S,Christmas Valley,Christmas Valley,4320.0,-120.6646957,43.23625183,0,0,0,0,122800,1
OG06,Table Rock,Christmas Valley,4305.0,-120.8433228,43.21152878,,,,,,1
08OR,Saxon Sycan,Silver Lake,4990.0,-121.117218,42.83930969,,,,,,1
5OR4,Flying T Ranch,Sprague River,4340.0,-121.3497238,42.43486786,,,,,,1
80OR,Wilderness,Bly,4540.0,-120.9658203,42.36431885,,,,,,1
85OR,Allen's Airstrip,Bly,4410.0,-121.0488815,42.40459442,,,,,,1
KTUA,Tulelake Airport,Tulelake,4410.0,-121.0601044,42.48150253,,,,,,1
22OG,Withrotor,Lakeview,4920.0,-120.3935699,42.2754364,,,,,,1
22S,Paisley,Paisley,4385.0,-120.5627747,42.7179718,0,0,0,0,0,1
36S,Happy Camp,Happy Camp,1209.0,-123.3889465,41.79067993,0,0,0,0,0,1
3S4,Illinois Valley,Cave Junction,1374.0,-123.6824188,42.10359955,0,0,0,0,122800,1
A30,Scott Valley,Ft Jones,2728.0,-122.8549423,41.5577774,0,0,0,0,122800,1
CA09,Round Mountain,Klamath River,3500.0,-122.8444748,41.88624573,,,,,,1
1O5,Montague-Yreka Rohrer Field,Montague,2520.0,-122.5444794,41.72998428,0,0,0,0,122800,1
23CA,Lefko,Fort Jones,2892.0,-122.75914,41.62918091,,,,,,1
24S,Pinehurst State,Pinehurst,3615.0,-122.38311,42.11019516,0,0,0,0,0,1
2CL3,Longbell Ranch,Tennant,4607.0,-121.8902817,41.64208984,,,,,,1
6CA1,Triple R Ranch,Macdoel,4380.0,-121.878334,41.74265289,,,,,,1
A32,Butte Valley,Dorris,4243.0,-121.9755859,41.88724899,0,0,0,0,0,1
CA10,Coonrod Ranch,Little Shasta,3011.0,-122.3196716,41.61739731,,,,,,1
KSIY,Siskiyou Co,Montague,2641.0,-122.4681091,41.78144455,0,0,0,121125,123000,1
KMOO,Avery Ranch Airstrip,Montague,2621.0,-122.4113846,41.62787628,,,,,,1
O21,Hoopa,Hoopa,356.0,-123.6678085,41.04147339,0,0,0,0,0,1
1O6,Dunsmuir Muni-Mott,Dunsmuir,3243.0,-122.2720413,41.26292038,0,0,0,0,0,1
O46,Weed,Weed,2925.0,-122.4545288,41.48080444,0,0,0,0,122700,1
O86,Trinity Center,Trinity Center,2390.0,-122.6937256,40.98274994,0,0,0,0,0,1
0OR3,Long Ranch,Merrill,4090.0,-121.7038879,42.01903915,,,,,,1
4S7,Malin,Malin,4052.0,-121.3963623,42.00114059,0,0,0,0,0,1
KLMT,Crater Lake-Klamath Rgnl,Klamath Falls,4091.0,-121.7332077,42.15614319,133975,126500,0,0,122950,1
O81,Tulelake Mun,Tulelake,4042.0,-121.3606644,41.89064026,0,0,0,0,0,1
3OG3,Dillon Field,Altamont,4092.0,-121.7916641,42.1222229,,,,,,1
6OG3,Sky Wagon Ranch Llc,Tulelake,4150.0,-121.5316315,42.13028336,,,,,,1
A28,Ft Bidwell,Ft Bidwell,4596.0,-120.146637,41.87649918,0,0,0,0,0,1
KLKV,Lake Co,Lakeview,4729.0,-120.399086,42.16110992,0,0,135525,0,122800,1
O59,Cedarville,Cedarville,4570.0,-120.1656113,41.55361176,0,0,0,0,122800,1
KALT,Alturas Airport,Alturas,4993.0,-120.6650848,41.521595,,,,,,1
A26,Adin,Adin,4225.0,-120.9543915,41.18650055,0,0,0,0,0,1
O55,Southard,Bieber,4151.0,-121.1240463,41.13954163,0,0,0,0,0,1
O89,Fall River Mills,Fall River Mills,3325.0,-121.4349747,41.01736069,0,0,0,0,122800,1
9CL3,Likely,Likely,4420.0,-120.526062,41.24017334,,,,,,1
A24,California Pines,Alturas,4381.0,-120.6838837,41.41226196,0,0,0,0,123000,1
CA06,Bates Field,Alturas,4400.0,-120.5692291,41.41776276,,,,,,1
CL88,Wesinger Ranch,Alturas,4407.0,-120.5838623,41.44691467,,,,,,1
KAAT,Alturas Mun,Alturas,4372.0,-120.5653915,41.48297119,0,0,0,124175,122800,1
O39,Ravendale,Ravendale,5304.0,-120.3662109,40.80370331,0,0,0,0,0,1
KALL,Alturas Airport,Alturas,4296.0,-120.8679276,41.43332672,,,,,,1
KALU,Alturas Airport,Alturas,4381.0,-120.5335846,41.33203506,,,,,,1
41CA,Silver Creek Ranch,Forest Glen,2511.0,-123.2539139,40.31764603,,,,,,1
45CL,Hell'Er High Water,Zenia,2493.0,-123.3983536,40.14320374,,,,,,1
D63,Dinsmore,Dinsmore,2375.0,-123.5982208,40.49202728,0,0,0,0,0,1
F62,Hayfork,Hayfork,2325.0,-123.1796417,40.54700089,0,0,0,0,122800,1
H47,Hyampom,Hyampom,1261.0,-123.4684982,40.62561035,0,0,0,0,122800,1
O54,Pool/Weaverville,Weaverville,2290.0,-122.9223633,40.74722672,0,0,0,0,122800,1
T42,Ruth,Ruth,2781.0,-123.2976913,40.21147156,0,0,0,0,122800,1
3CL2,Meadow Airstrip,Red Bluff,344.0,-122.3021698,40.15678024,,,,,,1
68CA,Lake California Air Park,Cottonwood,615.0,-122.2158356,40.36111069,,,,,,1
CA04,Flying N Ranch,Cottonwood,530.0,-122.3388901,40.34626389,,,,,,1
CA53,Tews Field,Redding,740.0,-122.3416672,40.67250061,,,,,,1
CN42,Double Creek Ranch,Manton,2030.0,-121.8822174,40.44570923,,,,,,1
KRBL,Red Bluff Muni,Red Bluff,345.0,-122.2521973,40.1503067,124850,125550,0,0,0,1
KRDD,Redding Muni,Redding,497.0,-122.2933884,40.50897217,119800,124100,0,0,122950,1
O85,Benton Field,Redding,721.0,-122.4073334,40.57366562,0,0,0,0,122800,1
KREN,Redding Airport,Redding,478.0,-122.3759155,40.49929428,,,,,,1
1Q5,Gravelly Valley,Upper Lake,1900.0,-122.9546127,39.45072174,0,0,0,0,0,1
O09,Round Valley,Covelo,1434.0,-123.2663345,39.79050064,0,0,0,0,122800,1
O28,Ells-Willits Mun,Willits,2045.0,-123.3723297,39.45133209,0,0,0,0,122800,1
KCOV,Covelo Airport,Covelo,2312.0,-123.1855011,39.62957382,,,,,,1
0O4,Corning Muni,Corning,293.0,-122.1711121,39.94610977,0,0,0,0,123000,1
49CN,Rancho Tehama,Red Bluff,550.0,-122.3899994,40.0159874,,,,,,1
4CA7,Johnsen,Chico,190.0,-121.8858109,39.67071533,,,,,,1
90CL,Diamond M Ranch,Elk Creek,1296.0,-122.609436,39.57210159,,,,,,1
KWLW,Willows-Glenn Co,Willows,137.0,-122.2172775,39.5157547,0,0,0,0,122800,1
O37,Haigh,Orland,214.0,-122.1463623,39.72039032,0,0,0,0,122700,1
0Q6,Shingletown,Shingletown,3868.0,-121.8167648,40.52261353,0,0,0,0,0,1
52CN,Ponderosa Sky Ranch,Paynes Creek,3446.0,-121.7727432,40.34395599,,,,,,1
O05,Rogers,Chester,4524.0,-121.2411652,40.28236008,0,0,0,0,122800,1
KWES,Westwood Airport,Westwood,5102.0,-121.0367203,40.30614471,,,,,,1
1Q2,Spaulding,Susanville,5115.0,-120.7685089,40.6503067,0,0,0,0,0,1
H37,Herlong,Herlong,4054.0,-120.1799698,40.13872147,0,0,0,0,0,1
KAHC,Amedee AAF,Sierra Army Depot,4009.0,-120.1506119,40.26591873,0,0,0,0,0,1
KSVE,Susanville Mun,Susanville,4137.0,-120.5726929,40.37569427,0,0,0,0,122800,1
KSUV,Susanville Airport,Susanville,5143.0,-120.8447266,40.57108307,,,,,,1
07CL,Richvale,Richvale,100.0,-121.7713623,39.49766541,,,,,,1
2O1,Gansner Field,Quincy,3413.0,-120.9453888,39.94391632,0,0,0,0,122700,1
CL23,Jones/Ag-Viation,Biggs,109.0,-121.6960831,39.45960999,,,,,,1
KCIC,Chico Muni,Chico,222.0,-121.8584137,39.79538727,121000,119675,119675,0,122950,1
KOVE,Oroville Mun,Oroville,184.0,-121.6220016,39.48780441,0,0,0,121425,122800,1
CL56,Ranchaero,Chico,173.0,-121.870491,39.71952057,122900,0,0,0,0,1
CA92,Paradise Skypark,Paradise,1310.0,-121.6165009,39.71055603,0,0,0,0,122800,1
2CL1,Brownsville,Brownsville,2100.0,-121.2916412,39.45522308,0,0,0,0,0,1
CA38,Totem Pole Ranch,Calpine,4986.0,-120.4385452,39.65129089,,,,,,1
O02,Nervino,Beckwourth,4895.0,-120.3528061,39.81852722,0,0,0,0,122800,1
O79,Sierraville Dearwater,Sierraville,4967.0,-120.3540268,39.58166504,0,0,0,0,0,1
CA11,Bodad Airstrip,California,5907.0,-120.2168579,39.99721527,,,,,,1
00CL,Williams Ag,Sacramento,87.0,-121.7634277,39.42718887,,,,,,1
1O2,Lampson Field,Lakeport,1375.0,-122.9007187,38.99061203,0,0,118350,0,122800,1
53CL,Lofty Redwoods,Anchor Bay,1317.0,-123.5905685,38.85963058,,,,,,1
CA51,The Sea Ranch,The Sea Ranch,360.0,-123.4325104,38.70463181,,,,,,1
D83,Boonville,Boonville,366.0,-123.3815536,39.01395416,0,0,0,0,122700,1
E55,Ocean Ridge,Gualala,925.0,-123.5306396,38.80161285,0,0,0,0,122800,1
KUKI,Ukiah Muni,Ukiah,611.0,-123.2008591,39.12594604,0,0,0,119275,123000,1
O60,Cloverdale Mun,Cloverdale,274.0,-122.9926147,38.77627945,0,0,0,0,122800,1
KREE,Redwood Valley Airport,Redwood Valley,949.0,-123.0774231,39.2774086,,,,,,1
KREW,Redwood Valley Airport,Redwood Valley,925.0,-123.088768,39.28576279,,,,,,1
20CL,Mysterious Valley,Pope Valley,1410.0,-122.3674774,38.74934769,,,,,,1
2CL2,Mccabe Ranch,Arbuckle,206.0,-122.0982361,39.00856018,,,,,,1
38CN,Sanborn,Meridian,36.0,-121.8838577,39.10933685,,,,,,1
44CL,Cortopassi,Linden,38.0,-121.950386,39.04785538,,,,,,1
4CL3,Antelope Valley Ranch,Williams,530.0,-122.3541183,39.14625168,,,,,,1
53CN,Thayer Aviation,Grimes,54.0,-121.9177475,39.07489395,,,,,,1
63CL,G3 Ranch,Capay,360.0,-122.1385803,38.71656799,,,,,,1
67CL,Davis,Colusa,45.0,-122.048584,39.20100403,,,,,,1
71CL,Gunnersfield Ranch,Delevan,62.0,-122.0938644,39.35266495,,,,,,1
81CA,7-M Ranch,Middletown,1153.0,-122.5633087,38.73181152,,,,,,1
8CL6,Moller,Maxwell,85.0,-122.1891479,39.28850174,,,,,,1
CN12,Williams,Williams,68.0,-122.1316376,39.16350174,,,,,,1
O08,Colusa Co,Colusa,48.0,-121.9933319,39.17900085,0,0,0,0,122800,1
Q79,Paul Hoberg,Loch Lomond,2071.0,-122.6773148,38.87147522,,,,,,1
12CN,Richter,Maxwell,56.0,-122.1167831,39.26840591,,,,,,1
KMAX,Maxwell Airport,Maxwell,1263.0,-122.4812851,39.26962662,,,,,,1
KSTS,Charles M Schulz - Sonoma Coun,Santa Rosa,118.0,-122.8128891,38.50969315,118500,120550,0,120550,122950,1
KHES,Healdsburg Mun,Healdsburg,267.0,-122.8986435,38.65285873,122800,0,0,0,0,1
05CL,Pope Valley,Pope Valley,618.0,-122.3913651,38.61073685,,,,,,1
0Q3,Sonoma Valley,Schellville-Sonoma,10.0,-122.4497147,38.2239418,0,0,0,0,0,1
0Q9,Sonoma Skypark,Sonoma,20.0,-122.434082,38.25744629,0,0,0,0,122800,1
2O3,Angwin-Parrett Field,Angwin,1858.0,-122.4354706,38.58002853,0,0,0,0,123000,1
8Q0,Travis AFB Aero Club,Fairfield,53.0,-121.9720764,38.26971817,,,,,,1
CA35,San Rafael,San Rafael,5.0,-122.5208054,38.01686859,,,,,,1
CA39,Graywood Ranch,Santa Rosa,450.0,-122.563591,38.43463516,,,,,,1
CA57,Blake Sky Park,Vacaville,310.0,-122.0455246,38.45824051,,,,,,1
KAPC,Napa Co,Napa,22.0,-122.2806854,38.21318817,118700,124050,0,0,122950,1
KCCR,Buchanan Field,Concord,22.0,-122.0569,37.98965454,119700,124700,0,0,122950,1
KDVO,Gnoss,Novato,3.0,-122.5570908,38.14357376,0,0,120675,0,123075,1
KSUU,Travis AFB,Fairfield,47.0,-121.9241333,38.26453781,120750,135550,0,0,0,1
KVCB,Nut Tree,Vacaville,114.0,-121.9611969,38.37822342,0,0,0,134750,0,1
O69,Petaluma Mun,Petaluma,84.0,-122.6053238,38.25779343,0,0,0,0,122700,1
KGRV,Green Valley Airport,Green Valley,12.0,-122.1229782,38.1726265,,,,,,1
KNAA,Napa Airport,Napa,12.0,-122.2851944,38.2612915,,,,,,1
09CL,Alta Sierra,Grass Valley,2243.0,-121.055191,39.11206436,,,,,,1
18CL,Bowles,Live Oak,75.0,-121.6941376,39.2859993,,,,,,1
25CL,Van Dyke Strip,Pleasant Grove,48.0,-121.4843979,38.8665657,,,,,,1
27CL,Sopwith Farm,Pleasant Grove,20.0,-121.5727386,38.74712372,,,,,,1
32CL,Bob's Flying Service Inc,Knights Landing,40.0,-121.7177429,38.83323288,,,,,,1
34CA,Fiddyment Field,Roseville,89.0,-121.3745804,38.7922821,,,,,,1
38CL,Riego Flight Strip,Verona,21.0,-121.5630112,38.75407028,,,,,,1
59CN,James Brothers,Pleasant Grove,25.0,-121.5296783,38.8348999,,,,,,1
92CL,Moronis,Meridian,35.0,-121.8502502,39.10322571,,,,,,1
CA07,Scheidel Ranch,Pleasant Grove,28.0,-121.5616226,38.84017944,,,,,,1
CA18,Wagner Aviation,Robbins,24.0,-121.7099609,38.87212372,,,,,,1
CA21,Limberlost Ranch,Rough And Ready,1650.0,-121.2149582,39.22072601,,,,,,1
CA22,Lauppes Strip,Sacramento,23.0,-121.5852356,38.75934601,,,,,,1
CA73,Vanderford Ranch Company,Yuba City,42.0,-121.716362,39.09572601,,,,,,1
KAUN,Auburn Mun,Auburn,1515.0,-121.0817261,38.95483398,0,0,119375,0,122700,1
KBAB,Beale AFB,Marysville,109.0,-121.4365845,39.13610077,119400,124550,0,0,0,1
KLHM,Lincoln Regl/Harder,Lincoln,120.0,-121.3513336,38.90916824,0,0,124250,0,123000,1
KMYV,Yuba County,Marysville,62.0,-121.5698318,39.09777832,0,0,0,118475,123050,1
KSMF,Sacramento Intl,Sacramento,24.0,-121.5907745,38.69544601,125700,126750,0,0,122950,1
L36,Rio Linda,Rio Linda,45.0,-121.4454422,38.67499924,0,0,0,0,123000,1
KGOO,Nevada Co,Grass Valley,3113.0,-121.0025558,39.22405624,0,0,121325,0,123000,1
O41,Watts-Woodland,Woodland,119.0,-121.8720779,38.67387772,0,0,0,0,122800,1
O52,Sutter County,Yuba City,59.0,-121.6053619,39.12366486,0,0,0,0,122700,1
O61,Cameron,Cameron Park,1269.0,-120.9875259,38.68399811,0,0,0,0,123050,1
0CN2,Sutter Butte Dusters,,67.0,-121.6882706,39.22862244,,,,,,1
KBEL,Beale Air Force Base Airport,Beale Air Force Base,131.0,-121.4200974,39.18855667,,,,,,1
KWOO,Zamora Airport,Woodland,40.0,-121.8306732,38.79922485,,,,,,1
01CL,Swansboro Country,Placerville,2594.0,-120.734375,38.79990387,0,0,0,0,0,1
54CN,Akin,Placerville,1595.0,-120.8991089,38.75407028,,,,,,1
7CL9,Perryman,Placerville,2600.0,-120.7313232,38.69629288,,,,,,1
80CA,Bacchi Valley Industries,Lotus,760.0,-120.9224396,38.81739807,,,,,,1
E36,Georgetown,Georgetown,2623.0,-120.8648071,38.92111206,0,0,0,0,123050,1
KBLU,Blue Canyon-Nyack,Emigrant Gap,5265.0,-120.7097473,39.27497101,0,0,0,120075,0,1
KPVF,Placerville,Placerville,2581.0,-120.7533112,38.72422791,0,0,128125,0,122800,1
KTRK,Truckee-Tahoe,Truckee,5894.0,-120.1395798,39.32005692,120575,0,118000,0,122800,1
KEDU,University,Davis,64.0,-121.7864838,38.53145981,122800,0,0,0,123075,1
13CL,Maine Prairie,Dixon,40.0,-121.8235703,38.38129807,,,,,,1
1O3,Lodi,Lodi,58.0,-121.2691422,38.20244217,0,0,0,0,0,1
26CA,Boeckmann Ranch,Wilton,100.0,-121.1716156,38.42685699,,,,,,1
2CL9,Mustang,Galt,45.0,-121.3035583,38.3343544,,,,,,1
KDWA,Yolo County,Davis/Woodland/Winters,99.0,-121.8569412,38.57938766,0,0,125775,0,123000,1
40CL,Ranch Airstrip,Ione,274.0,-120.9763565,38.33826447,,,,,,1
51CL,Vetters Sky Ranch,Galt,80.0,-121.222168,38.23047256,,,,,,1
57CN,Van Vleck,Rancho Murieta,175.0,-121.0752258,38.46907425,,,,,,1
60CL,Chp Academy,Bryte,20.0,-121.5605087,38.59879303,,,,,,1
65CN,Bottimore Ranch,Herald,70.0,-121.2510605,38.30408096,,,,,,1
69CL,Medlock Field,Davis,48.0,-121.7474594,38.61545944,,,,,,1
8CA8,Wallom Field,Lodi,55.0,-121.2075958,38.06735992,,,,,,1
90CA,Fowler's,Linden,77.0,-121.1185532,38.00353241,,,,,,1
9CL9,Spezia,Walnut Grove,0.0,-121.5343933,38.21658325,,,,,,1
CN13,Borges - Clarksburg,Clarksburg,10.0,-121.5088577,38.44324875,0,0,0,0,0,1
CA20,Eagle's Nest,Ione,220.0,-121.0149384,38.4304657,,,,,,1
CL04,Sky Way Estates,Elk Grove,92.0,-121.2349472,38.41074371,,,,,,1
CL11,Ferdun Ranch,Lodi,70.0,-121.2184601,38.13511658,,,,,,1
CN38,Flying B Ranch,Franklin,19.0,-121.4374542,38.34130096,,,,,,1
E27,Elk Grove,Elk Grove,56.0,-121.3307648,38.3923645,0,0,0,0,0,1
F72,Franklin,Franklin,21.0,-121.429306,38.30400085,0,0,0,0,0,1
KMCC,Mc Clellan Airfield,Sacramento,73.0,-121.4006119,38.66764069,0,0,125975,0,122970,1
KMHR,Sacramento Mather,Sacramento,88.0,-121.2972107,38.55531311,120650,118325,118325,0,122950,1
KRIU,Rancho Murieta,Rancho Murieta,142.0,-121.1027756,38.48677826,0,0,0,0,122800,1
KSAC,Sacramento Executive,Sacramento,22.0,-121.4933014,38.51285934,119500,125500,0,0,122950,1
L53,Lodi Airpark,Lodi,25.0,-121.3163376,38.08408737,0,0,0,0,0,1
O20,Kingdon,Lodi,15.0,-121.3593979,38.09158707,0,0,0,0,122800,1
O88,Rio Vista Mun,Rio Vista,22.0,-121.7036362,38.19338989,0,0,0,0,122800,1
CN95,Heritage Field,,-24.0,-121.4922867,37.99330521,,,,,,1
5CA8,Howard /Private/,Ione,480.0,-120.9316025,38.25630569,,,,,,1
6CA6,Eagle Ridge Ranch,Railroad Flat,2870.0,-120.4782257,38.32452774,,,,,,1
73CA,Bear Valley,Bear Valley,7073.0,-120.0399094,38.45880127,,,,,,1
CA19,Camanche Skypark,Ione,520.0,-120.9232712,38.26380539,,,,,,1
CA71,Horse Shoe A Ranch,Drytown,750.0,-120.8869476,38.43999863,,,,,,1
KCPU,Calaveras Co-Rasmussen,San Andreas,1316.0,-120.6481628,38.14611053,0,0,118525,0,123000,1
O22,Columbia,Columbia,2091.0,-120.4145584,38.0304184,0,0,124650,0,123050,1
KJAQ,Westover-Amador Co,Jackson,1687.0,-120.7939148,38.37680435,0,0,121125,0,123075,1
74CA,Flying Gluepie Ranch,,1443.0,-120.8032684,38.46750259,,,,,,1
KHAF,Half Moon Bay,Half Moon Bay,48.0,-122.5011673,37.51344299,0,0,0,0,122800,1
KHWD,Hayward Executive,Hayward,36.0,-122.1217346,37.65892792,118900,126700,0,0,122950,1
KNUQ,Moffett Federal AFLD,Mountain View,19.0,-122.0491333,37.41614151,119550,124175,124175,0,0,1
KOAK,Metropolitan Oakland Intl,Oakland,6.0,-122.221138,37.72124863,118300,133775,0,0,122950,1
KPAO,Palo Alto,Palo Alto,7.0,-122.1150589,37.46111298,118600,0,0,0,0,1
KSFO,San Francisco Intl,San Francisco,10.0,-122.3754272,37.61881638,120500,0,0,0,122950,1
KSJC,Mineta San Jose Intl,San Jose,47.0,-121.9286194,37.36299515,124000,126950,0,126950,122950,1
KSQL,San Carlos,San Carlos,5.0,-122.249527,37.51185989,119000,125900,125900,0,0,1
NGZ,Alameda NAS,Alameda,14.0,-122.3206863,37.78898239,127050,0,0,0,0,1
CL77,Bonny Doon Village,Santa Cruz,2020.0,-122.1274643,37.07050323,,,,,,1
1Q4,New Jerusalem,Tracy,58.0,-121.3011932,37.67777634,0,0,0,0,0,1
4CA2,Funny Farm,Brentwood,29.0,-121.6474533,37.94686508,,,,,,1
4CA8,Yandell Ranch,Modesto,41.0,-121.1644592,37.64087677,,,,,,1
5CL3,Mapes Ranch,Modesto,34.0,-121.1985474,37.66798782,,,,,,1
63CN,Meadowlark Field,Livermore,730.0,-121.6935577,37.66131973,,,,,,1
C83,Byron,Byron,60.0,-121.6258316,37.82844543,0,0,123775,0,123050,1
CA54,33 Strip,Tracy,80.0,-121.3276978,37.67023468,,,,,,1
CA67,Westley,Westley,96.0,-121.2049332,37.54798508,,,,,,1
CN29,J-B,Farmington,103.0,-121.0154953,37.93520355,,,,,,1
CN44,Flying Bull,Modesto,40.0,-121.1629715,37.62047195,,,,,,1
KLVK,Livermore Muni,Livermore,387.0,-121.8203583,37.69338989,118100,119650,0,0,122950,1
KMOD,Modesto City-Co-Harry Sham Fld,Modesto,91.0,-120.9544296,37.62582397,125300,127700,0,127700,122950,1
KRHV,Reid-Hillview Of Santa Clara C,San Jose,131.0,-121.819809,37.33286285,119800,125200,0,0,122950,1
KSCK,Stockton Metropolitan,Stockton,28.0,-121.238739,37.89441299,120300,118250,0,0,122950,1
KTCY,Tracy Mun,Tracy,184.0,-121.4415741,37.68889618,0,0,118375,0,123075,1
CN99,Del Mar Farms,,62.0,-121.158577,37.54644394,,,,,,1
KESS,Escalon Airport,Escalon,127.0,-120.9659805,37.84577179,,,,,,1
08CL,Kistler Ranch,Jamestown,1025.0,-120.5543671,37.85964966,,,,,,1
15CL,Hunt Farms,Merced,223.0,-120.4035187,37.34272003,,,,,,1
34CN,Bonanza Hills,Snelling,295.0,-120.3976898,37.52354813,,,,,,1
45CN,Hermitage,Groveland,2700.0,-120.1935196,37.88020325,,,,,,1
6CL9,Peoria,Jamestown,835.0,-120.5154343,37.92143631,,,,,,1
9CL0,Turlock Airpark,Turlock,100.0,-120.8440933,37.47076797,,,,,,1
CA03,John Myers,Planada,280.0,-120.294075,37.34994125,,,,,,1
CA45,Stevinson Strip,Stevinson,78.0,-120.8628693,37.32412338,,,,,,1
CL84,Ahlem Farms,Hilmar,73.0,-120.9274292,37.38826752,,,,,,1
E45,Pine Mountain Lake,Groveland,2914.0,-120.1785583,37.86166763,0,0,0,0,123050,1
KMCE,Merced Rgnl/Macready Field,Merced,155.0,-120.513916,37.28475189,0,0,0,0,122700,1
KMER,Castle,Atwater,184.0,-120.5681839,37.38048172,118175,124475,124475,0,122950,1
O15,Turlock Mun,Turlock,161.0,-120.6973343,37.48402786,0,0,0,0,122800,1
O27,Oakdale,Oakdale,230.0,-120.8001938,37.7563324,0,0,0,0,122800,1
KMPI,Mariposa-Yosemite,Mariposa,2238.0,-120.0395279,37.51086044,0,0,135600,0,122700,1
0CN1,Fiorini Ranch,,134.0,-120.7647552,37.45217896,,,,,,1
KTUO,Tuolumne City Airport,Tuolumne City,1303.0,-120.2742615,37.67770386,,,,,,1
1C9,Frazier Lake Airpark,Hollister,153.0,-121.4626389,36.95283508,0,0,0,0,123050,1
3O1,Gustine,Gustine,78.0,-120.9642487,37.26055527,0,0,0,0,0,1
KCVH,Hollister Muni,Hollister,220.0,-121.4102783,36.89334869,123000,0,120425,0,0,1
9CL2,Christensen Ranch,Hollister,380.0,-121.3371506,36.87162018,,,,,,1
CA66,Monterey Bay Academy,Watsonville,70.0,-121.8430099,36.90606308,0,0,0,0,122800,1
E16,South Co Of Santa Clara Co,San Martin,278.0,-121.5968094,37.08158493,0,0,0,0,122700,1
